"","DTIME_INSERTED","LISTING_TYPE","RENTAL_TYPE","LISTING_ID","LISTING_NAME","VALUE","VALUE_PSF","CNT_BEDS","CNT_BATHS","SIZE_SQFT","LATITUDE","LONGITUDE","LISTING_LINK","SQFT_FIX","countrycode","county","district","postcode","FITTED_PROPERTY_PSF","PSF_RF_RANGE"
"1","2020/12/12 10:04:09","Rental","Master Room",1,"Room in 1 Cantonment Road",1500,10,NA,NA,150,1.27703474409458,103.841261034891,"https://www.99.co/singapore/rooms/property/1-cantonment-road-hdb-YZaPFVaHzH8Yp7TtgbxCKF",150,"SG","Central","Outram","085401","993.420207470447","Within Range"
"2","2020/12/12 10:04:15","Rental","Common Room",2,"Room in 1 Saint George's Road",800,8,NA,NA,100,1.3234026369407,103.86163080083,"https://www.99.co/singapore/rooms/property/1-saint-georges-road-hdb-TJhhdswGxMu24ryBssAV3A",100,"SG","Central","Kallang","320001","821.837927430103","Within Range"
"3","2020/12/12 10:04:21","Rental","Common Room",3,"Room in 1 Toh Yi Drive",800,6.15,NA,1,1,1.33957175314189,103.774678246393,"https://www.99.co/singapore/rooms/property/1-toh-yi-drive-hdb-4SeF9eb5MQ5x6ykainfgcQ",130.081300813008,"SG","Southwest","N/A","591501","1810.4427537229","Within Range"
"4","2020/12/12 10:04:28","Rental","Common Room",4,"Room in 100 Lorong 1 Toa Payoh",850,5.67,NA,NA,150,1.33956400517885,103.848585713817,"https://www.99.co/singapore/rooms/property/100-lorong-1-toa-payoh-hdb-Vt2i43D9Tm23tGtkupMCWA",149.911816578483,"SG","Central","Toa Payoh","319758","505.663677748197","Within Range"
"5","2020/12/12 10:04:34","Rental","Common Room",5,"Room in 100 Lorong 1 Toa Payoh",850,11.33,NA,NA,75,1.33956400517885,103.848585713817,"https://www.99.co/singapore/rooms/property/100-lorong-1-toa-payoh-hdb-bwkYBF4tDqEVvBi6fxE8Lc",75.0220653133274,"SG","Central","Toa Payoh","319758","505.663677748197","Within Range"
"6","2020/12/12 10:04:40","Rental","Common Room",6,"Room in 101 Spottiswoode Park Road",750,4.84,NA,NA,155,1.27524141291212,103.836045808088,"https://www.99.co/singapore/rooms/property/101-spottiswoode-park-road-hdb-uENY5HFBcWYrqKq9C7AUU8",154.95867768595,"SG","Central","Bukit Merah","088660","873.097139657288","Within Range"
"7","2020/12/12 10:04:46","Rental","Common Room",7,"Room in 102 Commonwealth Crescent",800,5.33,NA,NA,150,1.30782464878025,103.800629787177,"https://www.99.co/singapore/rooms/property/102-commonwealth-crescent-hdb-ggERiwLVmc8K4GN45gvSXM",150.093808630394,"SG","Northwest","N/A","140102","1089.10934659267","Within Range"
"8","2020/12/12 10:04:54","Rental","Common Room",8,"Room in 102 Jalan Rajah",700,5.83,NA,NA,120,1.32822306444762,103.851519753845,"https://www.99.co/singapore/rooms/property/102-jalan-rajah-hdb-jetjPq8nuj94o9QySXjk4X",120.068610634648,"SG","Central","Novena","N/A","523.305668955841","Within Range"
"9","2020/12/12 10:05:00","Rental","Common Room",9,"Room in 102 Jalan Rajah",720,6,NA,NA,120,1.32822306444762,103.851519753845,"https://www.99.co/singapore/rooms/property/102-jalan-rajah-hdb-u8Bns96iF88MdgLrp5LM6P",120,"SG","Central","Novena","N/A","523.305668955841","Within Range"
"10","2020/12/12 10:05:08","Rental","Master Room",10,"Room in 102 Lengkong Tiga",750,7.5,NA,1,1,1.32557930714659,103.91065754789,"https://www.99.co/singapore/rooms/property/102-lengkong-tiga-hdb-3p8WuFYwMNfCZMJfbgC5uX",100,"SG","Southeast","Bedok","410102","560.995623593305","Within Range"
"11","2020/12/12 10:05:16","Rental","Common Room",11,"Room in 103 Hougang Avenue 1",800,4,NA,NA,200,1.35528223434406,103.89036014824,"https://www.99.co/singapore/rooms/property/103-hougang-avenue-1-hdb-7WhEJ4iADWsXrLFv6gmUDU",200,"SG","Northeast","Hougang","530110","528.906590910111","Within Range"
"12","2020/12/12 10:05:23","Rental","Common Room",12,"Room in 103 Towner Road",850,3.4,NA,NA,250,1.32064381512285,103.861634081148,"https://www.99.co/singapore/rooms/property/103-towner-road-hdb-AjiLgv3Q9SNADMrZjxhPvP",250,"SG","Central","Kallang","322103","821.837927430103","Outside Range"
"13","2020/12/12 10:05:29","Rental","Common Room",13,"Room in 104 Pasir Ris Street 12",600,6.98,NA,NA,86,1.36795278578739,103.958702642513,"https://www.99.co/singapore/rooms/property/104-pasir-ris-street-12-hdb-kiCBN34Wb43CT8tWWcQRW8",85.9598853868195,"SG","Northeast","Pasir Ris","510104","573.872904376391","Within Range"
"14","2020/12/12 10:05:36","Rental","Master Room",14,"Room in 105 Bedok North Avenue 4",1000,8.7,NA,NA,115,1.33372280929002,103.936517719048,"https://www.99.co/singapore/rooms/property/105-bedok-north-avenue-4-hdb-3QR7n2mkiFTijsaDktxm9F",114.942528735632,"SG","Southeast","Bedok","460105","576.888121633394","Within Range"
"15","2020/12/12 10:05:43","Rental","Master Room",15,"Room in 106 Jalan Dusun",1000,5,NA,NA,200,1.32855771177595,103.844796773619,"https://www.99.co/singapore/rooms/property/106-jalan-dusun-hdb-xCRsq6kUqk92q59YPyHhZd",200,"SG","Central","Novena","329876","523.305668955841","Within Range"
"16","2020/12/12 10:05:49","Rental","Common Room",16,"Room in 107 Simei Street 1",700,4.67,NA,NA,150,1.34216113967272,103.950489942022,"https://www.99.co/singapore/rooms/property/107-simei-street-1-hdb-nAkNw5EHbVk5FjVuWgwBZB",149.892933618844,"SG","Southeast","Simei","520107","611.216161668543","Within Range"
"17","2020/12/12 10:05:56","Rental","Common Room",17,"Room in 109 Lorong 1 Toa Payoh",600,5,NA,NA,120,1.34123727120828,103.846202460812,"https://www.99.co/singapore/rooms/property/109-lorong-1-toa-payoh-hdb-K4mPPnVqWHoDqYjayjkkK4",120,"SG","Central","Toa Payoh","310109","505.663677748197","Within Range"
"18","2020/12/12 10:06:02","Rental","Common Room",18,"Room in 11 Cantonment Close",880,5.87,NA,NA,150,1.27442604746073,103.839671514269,"https://www.99.co/singapore/rooms/property/11-cantonment-close-hdb-Rk75kdaCzSDMqFgCe7b4mn",149.914821124361,"SG","Central","Bukit Merah","080011","747.049049931791","Within Range"
"19","2020/12/12 10:06:08","Rental","Common Room",19,"Room in 11 Eunos Crescent",600,12,NA,NA,50,1.32180028934438,103.904424346286,"https://www.99.co/singapore/rooms/property/11-eunos-crescent-hdb-5NDfEMpzjarkvHGwnJfa9i",50,"SG","Southeast","Geylang","400011","608.596216375891","Within Range"
"20","2020/12/12 10:06:15","Rental","Common Room",20,"Room in 11 Lorong 8 Toa Payoh",900,9.28,NA,NA,97,1.33723344302178,103.858841063408,"https://www.99.co/singapore/rooms/property/11-lorong-8-toa-payoh-hdb-ur88w5V93F6Sy5aCtv3bwf",96.9827586206897,"SG","Central","Toa Payoh","310011","490.973317225598","Within Range"
"21","2020/12/12 10:06:23","Rental","Common Room",21,"Room in 11 Upper Boon Keng Road",350,2.33,NA,1,1,1.31423937033552,103.870914031459,"https://www.99.co/singapore/rooms/property/11-upper-boon-keng-road-hdb-LtWCWU88t3LCi6BpNXvjND",150.214592274678,"SG","Southeast","Kallang Way","380011","743.948115333336","Outside Range"
"22","2020/12/12 10:06:29","Rental","Room",22,"Room in 11 Upper Boon Keng Road",800,5.33,NA,1,1,1.31423937033552,103.870914031459,"https://www.99.co/singapore/rooms/property/11-upper-boon-keng-road-hdb-qQVzkTBY3xMP58ho9d33jk",150.093808630394,"SG","Southeast","Kallang Way","380011","743.948115333336","Outside Range"
"23","2020/12/12 10:06:37","Rental","Common Room",23,"Room in 110 Rivervale Walk",700,3.5,NA,NA,200,1.38349233528459,103.900312363452,"https://www.99.co/singapore/rooms/property/110-rivervale-walk-hdb-PvkPKaVwXx7mQ4tyCvDdX6",200,"SG","Northeast","Seng Kang","540110","456.748843220546","Within Range"
"24","2020/12/12 10:06:43","Rental","Room",24,"Room in 111A Depot Road",725,6.47,NA,2,2,1.28112269302351,103.808687895607,"https://www.99.co/singapore/rooms/property/111a-depot-road-hdb-rHA4GdkG7VJLq6XkHBmXEg",112.055641421947,"SG","Southwest","Alexandra","109708","611.216161668543","Within Range"
"25","2020/12/12 10:06:49","Rental","Common Room",25,"Room in 112 Pasir Ris Street 11",650,4.33,NA,NA,150,1.36770577441561,103.955796373988,"https://www.99.co/singapore/rooms/property/112-pasir-ris-street-11-hdb-witqBUN8G8X8dmMXmnoPk",150.115473441109,"SG","Northeast","Pasir Ris","510112","573.872904376391","Within Range"
"26","2020/12/12 10:06:56","Rental","Common Room",26,"Room in 113 Jalan Bukit Merah",850,5.67,NA,NA,150,1.28027764882907,103.82572355886,"https://www.99.co/singapore/rooms/property/113-jalan-bukit-merah-hdb-tJPeQizx55S7ZedfR2piTW",149.911816578483,"SG","Central","Bukit Merah","160111","873.097139657288","Within Range"
"27","2020/12/12 10:07:02","Rental","Common Room",27,"Room in 114 Lengkong Tiga",850,7.08,NA,NA,120,1.32313486125335,103.91204571131,"https://www.99.co/singapore/rooms/property/114-lengkong-tiga-hdb-EVTgCZBbYZ65HpqTkURz74",120.056497175141,"SG","Southeast","Bedok","410114","560.995623593305","Within Range"
"28","2020/12/12 10:07:08","Rental","Common Room",28,"Room in 114 Pasir Ris Street 11",650,5.42,NA,NA,120,1.36845058392968,103.954961424604,"https://www.99.co/singapore/rooms/property/114-pasir-ris-street-11-hdb-fsvAdqKaQ4aoEHvWfG4SSF",119.926199261993,"SG","Northeast","Pasir Ris","510114","573.872904376391","Within Range"
"29","2020/12/12 10:07:14","Rental","Common Room",29,"Room in 114 Serangoon North Avenue 1",680,4.53,NA,NA,150,1.3688522558684,103.871488888571,"https://www.99.co/singapore/rooms/property/114-serangoon-north-avenue-1-hdb-7gWVWg6qH4mJatYAwtPXHN",150.110375275938,"SG","Southeast","Serangoon","555891","471.329508460806","Within Range"
"30","2020/12/12 10:07:20","Rental","Master Room",30,"Room in 116 Bedok North Road",1000,8.33,NA,NA,120,1.33100823526592,103.938066838998,"https://www.99.co/singapore/rooms/property/116-bedok-north-road-hdb-8ZkKT6QVCchrNxUAdmZpsY",120.048019207683,"SG","Southeast","Bedok","460116","560.995623593305","Within Range"
"31","2020/12/12 10:07:26","Rental","Common Room",31,"Room in 116 Lengkong Tiga",800,8,NA,NA,100,1.32278533070062,103.911863013412,"https://www.99.co/singapore/rooms/property/116-lengkong-tiga-hdb-Y2CTkwtoc8jfqBHWUHfevL",100,"SG","Southeast","Bedok","417408","560.995623593305","Within Range"
"32","2020/12/12 10:07:32","Rental","Common Room",32,"Room in 116 Simei Street 1",700,2.8,NA,NA,250,1.3435845291971,103.951127773868,"https://www.99.co/singapore/rooms/property/116-simei-street-1-hdb-QaMMrakPAkfUPvuiwwKbSh",250,"SG","Southeast","Simei","520108","611.216161668543","Outside Range"
"33","2020/12/12 10:07:38","Rental","Common Room",33,"Room in 117A Jalan Tenteram",900,10,NA,NA,90,1.32823358427151,103.861138402914,"https://www.99.co/singapore/rooms/property/117a-jalan-tenteram-hdb-MjWj5zzEuvFwgEQjPFR3oj",90,"SG","Central","Novena","321117","659.529554475265","Within Range"
"34","2020/12/12 10:07:45","Rental","Common Room",34,"Room in 118 Marsiling Rise",900,9,NA,NA,100,1.43848429382175,103.780381436251,"https://www.99.co/singapore/rooms/property/118-marsiling-rise-hdb-p4EcWzbvnStx5hsRU6awRL",100,"SG","Northwest","Woodlands","730013","462.278716002517","Within Range"
"35","2020/12/12 10:07:53","Rental","Common Room",35,"Room in 118A Jalan Membina",800,5.33,NA,NA,150,1.28142028197975,103.825645216312,"https://www.99.co/singapore/rooms/property/118a-jalan-membina-hdb-d4x8zNEFqiUVumAnE5QHSY",150.093808630394,"SG","Central","Bukit Merah","161026","747.049049931791","Within Range"
"36","2020/12/12 10:08:00","Rental","Master Room",36,"Room in 118C Jalan Membina",1000,9.09,NA,NA,110,1.28216937082262,103.826333715085,"https://www.99.co/singapore/rooms/property/118c-jalan-membina-hdb-Qt9TPEexejohcNRGJ6VgJG",110.01100110011,"SG","Central","Bukit Merah","161026","747.049049931791","Within Range"
"37","2020/12/12 10:08:07","Rental","Room",37,"Room in 120 Simei Street 1",700,4.67,NA,2,2,1.34488867578582,103.953241348812,"https://www.99.co/singapore/rooms/property/120-simei-street-1-hdb-dDX49bmRwwWC9J8BtjB4Ta",149.892933618844,"SG","Southeast","Simei","520120","611.216161668543","Within Range"
"38","2020/12/12 10:08:14","Rental","Common Room",38,"Room in 121 Bedok Reservoir Road",930,5.81,NA,NA,160,1.33130517787874,103.909992224709,"https://www.99.co/singapore/rooms/property/121-bedok-reservoir-road-hdb-iNsKRzMf4JXyEvnEGr2pSV",160.068846815835,"SG","Northeast","Kaki Bukit","470121","450.43079121261","Within Range"
"39","2020/12/12 10:08:21","Rental","Common Room",39,"Room in 122 Mcnair Road",1000,5.56,NA,NA,180,1.3188425968422,103.856837677166,"https://www.99.co/singapore/rooms/property/122-mcnair-road-hdb-6obvCWbSBrDRkN2hmVWPLQ",179.856115107914,"SG","Central","Kallang","320122","665.030052588514","Within Range"
"40","2020/12/12 10:08:27","Rental","Master Room",40,"Room in 123 Simei Street 1",1000,5.18,NA,1,1,1.34530661835845,103.953187956159,"https://www.99.co/singapore/rooms/property/123-simei-street-1-hdb-RfEW7PsW83UDhXdoamNtWh",193.050193050193,"SG","Southeast","Simei","520123","611.216161668543","Within Range"
"41","2020/12/12 10:08:34","Rental","Common Room",41,"Room in 125 Kim Tian Road",900,6,NA,NA,150,1.28363467623263,103.828128050891,"https://www.99.co/singapore/rooms/property/125-kim-tian-road-hdb-b9agQXHVigqWoLGZFY3t87",150,"SG","Central","Bukit Merah","161126","734.008483601876","Within Range"
"42","2020/12/12 10:08:41","Rental","Master Room",42,"Room in 126 Bukit Merah View",350,3.5,NA,NA,100,1.28442540460776,103.823909174073,"https://www.99.co/singapore/rooms/property/126-bukit-merah-view-hdb-UFgE7QgF4riZSKvhAwiKTH",100,"SG","Central","Bukit Merah","150126","873.097139657288","Outside Range"
"43","2020/12/12 10:08:47","Rental","Common Room",43,"Room in 128 Kim Tian Road",700,7,NA,NA,100,1.2815246477005,103.829054629386,"https://www.99.co/singapore/rooms/property/128-kim-tian-road-hdb-cUyNbXiYwMVaFfrutJYFMR",100,"SG","Central","Bukit Merah","161120","734.008483601876","Within Range"
"44","2020/12/12 10:08:54","Rental","Common Room",44,"Room in 128 Rivervale Street",800,6.67,NA,NA,120,1.39049049629368,103.902688503849,"https://www.99.co/singapore/rooms/property/128-rivervale-street-hdb-rtabz6Jm8sRGGhsn7GBskY",119.940029985007,"SG","Northeast","Seng Kang","540127","456.748843220546","Within Range"
"45","2020/12/12 10:09:00","Rental","Common Room",45,"Room in 13 Eunos Crescent",280,3.5,NA,NA,80,1.32268661939565,103.903500926144,"https://www.99.co/singapore/rooms/property/13-eunos-crescent-hdb-nVGAnGwZGhvFjft3txMR2N",80,"SG","Southeast","Geylang","400013","608.596216375891","Outside Range"
"46","2020/12/12 10:09:06","Rental","Common Room",46,"Room in 13 Holland Drive",700,3.89,NA,NA,180,1.30936039548611,103.793205067682,"https://www.99.co/singapore/rooms/property/13-holland-drive-hdb-WM93xQbBuz9jfWjdHZjWQ9",179.948586118252,"SG","Northwest","N/A","270036","1089.10934659267","Outside Range"
"47","2020/12/12 10:09:12","Rental","Common Room",47,"Room in 13 Holland Drive",700,4.67,NA,NA,150,1.30936039548611,103.793205067682,"https://www.99.co/singapore/rooms/property/13-holland-drive-hdb-sKcnLXVG9tiKU5LQkePJM5",149.892933618844,"SG","Northwest","N/A","270036","1089.10934659267","Within Range"
"48","2020/12/12 10:09:19","Rental","Common Room",48,"Room in 132 Ang Mo Kio Avenue 3",800,2.67,NA,NA,300,1.37144743640864,103.841783557978,"https://www.99.co/singapore/rooms/property/132-ang-mo-kio-avenue-3-hdb-cea7eCvv9tTBbEs4jXdDXN",299.625468164794,"SG","Central","Ang Mo Kio","560134","510.507577396824","Outside Range"
"49","2020/12/12 10:09:25","Rental","Common Room",49,"Room in 133 Teck Whye Lane",750,0.57,NA,NA,1313,1.38074415084017,103.751221118009,"https://www.99.co/singapore/rooms/property/133-teck-whye-lane-hdb-mmdBzeKtshNgpXJcv7jb6R",1315.78947368421,"SG","Southwest","Choa Chu Kang","680133","503.009666620379","Outside Range"
"50","2020/12/12 10:09:31","Rental","Common Room",50,"Room in 135 Serangoon North Avenue 2",700,4.38,NA,NA,160,1.36725606646986,103.874813498992,"https://www.99.co/singapore/rooms/property/135-serangoon-north-avenue-2-hdb-nQGQiHRbpt5haetBSsqa8H",159.817351598174,"SG","Southeast","Serangoon","545669","471.329508460806","Within Range"
"51","2020/12/12 10:09:37","Rental","Room",51,"Room in 138A Lorong 1A Toa Payoh",1050,10.5,NA,1,1,1.33671098513786,103.845472945511,"https://www.99.co/singapore/rooms/property/138a-lorong-1a-toa-payoh-hdb-Kvawx68kPsRzyTatPmDjbJ",100,"SG","Central","Toa Payoh","311138","672.152699916389","Within Range"
"52","2020/12/12 10:09:44","Rental","Common Room",52,"Room in 138B Lorong 1A Toa Payoh",1000,6.67,NA,NA,150,1.33626408939967,103.845626191384,"https://www.99.co/singapore/rooms/property/138b-lorong-1a-toa-payoh-hdb-FYRz2SvdyJvAQRvhQTVye6",149.925037481259,"SG","Central","Toa Payoh","312138","672.152699916389","Within Range"
"53","2020/12/12 10:09:50","Rental","Common Room",53,"Room in 139 Petir Road",600,60,NA,NA,10,1.37534822344466,103.76965777289,"https://www.99.co/singapore/rooms/property/139-petir-road-hdb-XxiFJnom6q73BCLE3AHR84",10,"SG","Northwest","Bukit Panjang","670129","546.694234830271","Within Range"
"54","2020/12/12 10:09:57","Rental","Master Room",54,"Room in 139 Potong Pasir Avenue 3",835,2.78,NA,NA,300,1.33327648926162,103.866110230586,"https://www.99.co/singapore/rooms/property/139-potong-pasir-avenue-3-hdb-84AEEhJZuyW7eLi4Hxg3Mo",300.359712230216,"SG","Southeast","Potong Pasir","350139","517.406261474516","Outside Range"
"55","2020/12/12 10:10:03","Rental","Common Room",55,"Room in 14 Dover Close East",900,9,NA,NA,100,1.30556381153275,103.785595231093,"https://www.99.co/singapore/rooms/property/14-dover-close-east-hdb-katLTa94ZqeqBia8eCkiCF",100,"SG","Southwest","N/A","130014","1089.10934659267","Within Range"
"56","2020/12/12 10:10:09","Rental","Common Room",56,"Room in 140 Rivervale Street",750,5,NA,NA,150,1.38937559481465,103.903705419983,"https://www.99.co/singapore/rooms/property/140-rivervale-street-hdb-zM7458xepwTnrGPysydV5",150,"SG","Northeast","Seng Kang","N/A","456.748843220546","Within Range"
"57","2020/12/12 10:10:15","Rental","Common Room",57,"Room in 142 Rivervale Crescent",850,5.67,NA,NA,150,1.39045415383482,103.905102917752,"https://www.99.co/singapore/rooms/property/142-rivervale-crescent-hdb-RZDHCZfQUCbFVpUNYeb2H4",149.911816578483,"SG","Northeast","Seng Kang","545085","456.748843220546","Within Range"
"58","2020/12/12 10:10:21","Rental","Common Room",58,"Room in 143 Petir Road",420,7,NA,NA,60,1.37637448213034,103.76732428038,"https://www.99.co/singapore/rooms/property/143-petir-road-hdb-NV2z6kwJSZvpyZeXNTUwpZ",60,"SG","Northwest","Bukit Panjang","670143","546.694234830271","Within Range"
"59","2020/12/12 10:10:28","Rental","Common Room",59,"Room in 143 Petir Road",800,8,NA,NA,100,1.37637448213034,103.76732428038,"https://www.99.co/singapore/rooms/property/143-petir-road-hdb-crYkitmxjGc8iaP7fYVpKE",100,"SG","Northwest","Bukit Panjang","670143","546.694234830271","Within Range"
"60","2020/12/12 10:10:34","Rental","Common Room",60,"Room in 145 Lorong 2 Toa Payoh",750,6.82,NA,1,1,1.33521035428159,103.846162940767,"https://www.99.co/singapore/rooms/property/145-lorong-2-toa-payoh-hdb-gh39sGo7tzozZFyGDkgyn3",109.970674486804,"SG","Central","Toa Payoh","319640","672.152699916389","Within Range"
"61","2020/12/12 10:10:41","Rental","Common Room",61,"Room in 146 Pasir Ris Street 11",280,2.8,NA,NA,100,1.36303591789608,103.960157915898,"https://www.99.co/singapore/rooms/property/146-pasir-ris-street-11-hdb-sfKsNBM6MhZSovrE4dGN28",100,"SG","Northeast","Pasir Ris","510146","573.872904376391","Outside Range"
"62","2020/12/12 10:10:47","Rental","Common Room",62,"Room in 146 Potong Pasir Avenue 1",838,5.59,NA,NA,150,1.33180078265392,103.867242849282,"https://www.99.co/singapore/rooms/property/146-potong-pasir-avenue-1-hdb-GNR8hHwkuAziB6H9C2oyPD",149.910554561717,"SG","Southeast","Potong Pasir","358361","517.406261474516","Within Range"
"63","2020/12/12 10:10:53","Rental","Common Room",63,"Room in 148 Potong Pasir Avenue 1",850,6.54,NA,NA,130,1.33235435973174,103.86777426102,"https://www.99.co/singapore/rooms/property/148-potong-pasir-avenue-1-hdb-o45uB97zUFC5PSkoyVBYbH",129.969418960245,"SG","Southeast","Potong Pasir","350148","517.406261474516","Within Range"
"64","2020/12/12 10:11:00","Rental","Common Room",64,"Room in 148 Silat Avenue",700,5.83,NA,NA,120,1.27688315064167,103.830883904963,"https://www.99.co/singapore/rooms/property/148-silat-avenue-hdb-WZxjYYQyqsmP8XYb9B6tMW",120.068610634648,"SG","Central","Bukit Merah","160148","734.008483601876","Within Range"
"65","2020/12/12 10:11:06","Rental","Common Room",65,"Room in 15 Beach Road",850,85,NA,NA,10,1.30342539552916,103.863153423698,"https://www.99.co/singapore/rooms/property/15-beach-road-hdb-ZzVpftPZJj4u7HqS9N8nMD",10,"SG","Central","Kallang","208539","743.948115333336","Outside Range"
"66","2020/12/12 10:11:13","Rental","Common Room",66,"Room in 15 Telok Blangah Crescent",450,7.5,NA,NA,60,1.27706044815476,103.82076205842,"https://www.99.co/singapore/rooms/property/15-telok-blangah-crescent-hdb-qvQQypC6Y4ZuxU5UhrXPW3",60,"SG","Central","Bukit Merah","90009","641.759411930291","Within Range"
"67","2020/12/12 10:11:19","Rental","Common Room",67,"Room in 154 Lorong 2 Toa Payoh",750,5,NA,NA,150,1.33328783032611,103.846165629616,"https://www.99.co/singapore/rooms/property/154-lorong-2-toa-payoh-hdb-EbmRpEt355xZckaGBqW3k7",150,"SG","Central","Toa Payoh","310175","490.973317225598","Within Range"
"68","2020/12/12 10:11:25","Rental","Common Room",68,"Room in 156 Woodlands Street 13",330,5.5,NA,NA,60,1.43421027208489,103.774283872761,"https://www.99.co/singapore/rooms/property/156-woodlands-street-13-hdb-9p3nbRBVoenFUuk8XVe959",60,"SG","Northwest","Woodlands","730183","462.278716002517","Within Range"
"69","2020/12/12 10:11:31","Rental","Common Room",69,"Room in 157B Rivervale Crescent",700,3.5,NA,NA,200,1.38763106364665,103.908232918823,"https://www.99.co/singapore/rooms/property/157b-rivervale-crescent-hdb-iLDawTgtK3UiKWoRThfjEU",200,"SG","Northeast","Seng Kang","521170","508.206200682984","Outside Range"
"70","2020/12/12 10:11:39","Rental","Common Room",70,"Room in 159 Lorong 1 Toa Payoh",700,3.89,NA,NA,180,1.33074542627458,103.845601215216,"https://www.99.co/singapore/rooms/property/159-lorong-1-toa-payoh-hdb-cw3McD2pWWZDDq4whguXUd",179.948586118252,"SG","Central","Toa Payoh","310530","505.663677748197","Outside Range"
"71","2020/12/12 10:11:45","Rental","Common Room",71,"Room in 16 Cantonment Close",800,8,NA,NA,100,1.273919926125,103.840260930929,"https://www.99.co/singapore/rooms/property/16-cantonment-close-hdb-f38Yyop6pkHrXcrJpivsPB",100,"SG","Central","Bukit Merah","080016","747.049049931791","Within Range"
"72","2020/12/12 10:11:58","Rental","Common Room",72,"Room in 167A Simei Lane",750,8.72,NA,NA,86,1.34356565862115,103.959402041657,"https://www.99.co/singapore/rooms/property/167a-simei-lane-hdb-eHmJwLmJkEKgGBLb8N8xQB",86.0091743119266,"SG","Southeast","Simei","520157","692.795783898788","Within Range"
"73","2020/12/12 10:12:04","Rental","Common Room",73,"Room in 173 Woodlands Street 13",500,4.17,NA,NA,120,1.43296723097785,103.777807451472,"https://www.99.co/singapore/rooms/property/173-woodlands-street-13-hdb-zGpgQX8t2vXEe5HddCGNRT",119.904076738609,"SG","Northwest","Woodlands","739044","462.278716002517","Within Range"
"74","2020/12/12 10:12:10","Rental","Master Room",74,"Room in 181 Bishan Street 13",1000,5,NA,NA,200,1.34913809640173,103.852878507674,"https://www.99.co/singapore/rooms/property/181-bishan-street-13-hdb-svjjsp5bku8PpAxWRFqnKH",200,"SG","Central","Bishan","570181","542.146714844318","Within Range"
"75","2020/12/12 10:12:16","Rental","Common Room",75,"Room in 185 Edgefield Plains",750,5,NA,NA,150,1.39806814684992,103.910166919016,"https://www.99.co/singapore/rooms/property/185-edgefield-plains-hdb-GPa5YRkRFZkwtPx4Cf69zm",150,"SG","Northeast","Punggol","820055","571.685263647857","Within Range"
"76","2020/12/12 10:12:23","Rental","Common Room",76,"Room in 18B Holland Drive",850,7.08,NA,NA,120,1.31101768983657,103.791451916991,"https://www.99.co/singapore/rooms/property/18b-holland-drive-hdb-AEcJJyZUNDq5RYevwZuX5J",120.056497175141,"SG","Northwest","N/A","273018","1253.85026796182","Within Range"
"77","2020/12/12 10:12:29","Rental","Common Room",77,"Room in 190 Pasir Ris Street 12",600,4,NA,NA,150,1.36552479300539,103.958657337254,"https://www.99.co/singapore/rooms/property/190-pasir-ris-street-12-hdb-FV2UuKG4WShW6mf25U3Erb",150,"SG","Northeast","Pasir Ris","510190","573.872904376391","Within Range"
"78","2020/12/12 10:12:36","Rental","Common Room",78,"Room in 191 Lorong 4 Toa Payoh",750,6.25,NA,NA,120,1.33189327620475,103.851025403234,"https://www.99.co/singapore/rooms/property/191-lorong-4-toa-payoh-hdb-Yp4pnWoUNHCih4DS8Q4xjZ",120,"SG","Central","Toa Payoh","310191","505.663677748197","Within Range"
"79","2020/12/12 10:12:44","Rental","Common Room",79,"Room in 193 Lorong 4 Toa Payoh",980,7.54,NA,NA,130,1.33159005591996,103.851295104405,"https://www.99.co/singapore/rooms/property/193-lorong-4-toa-payoh-hdb-hdFUux8SDNWfqahXxje96d",129.973474801061,"SG","Central","Toa Payoh","310193","505.663677748197","Within Range"
"80","2020/12/12 10:12:51","Rental","Common Room",80,"Room in 195 Kim Keat Avenue",750,4.69,NA,NA,160,1.33029303390836,103.859165821409,"https://www.99.co/singapore/rooms/property/195-kim-keat-avenue-hdb-VF9UScac8SoSD9vKgi4XQf",159.914712153518,"SG","Central","Toa Payoh","310195","505.663677748197","Outside Range"
"81","2020/12/12 10:12:58","Rental","Common Room",81,"Room in 197 Bishan Street 13",700,5.83,NA,NA,120,1.34909908028045,103.850673737521,"https://www.99.co/singapore/rooms/property/197-bishan-street-13-hdb-sEVUWL2ABaN5j7xTdPjfka",120.068610634648,"SG","Central","Bishan","579799","618.719674735933","Within Range"
"82","2020/12/12 10:13:07","Rental","Common Room",82,"Room in 1A Cantonment Road",1000,10,NA,NA,100,1.2778427104822,103.840965923691,"https://www.99.co/singapore/rooms/property/1a-cantonment-road-hdb-YZAjzHeJssWajZX7w2HTkY",100,"SG","Central","Outram","085101","993.420207470447","Within Range"
"83","2020/12/12 10:13:13","Rental","Common Room",83,"Room in 2 Beach Road",1000,100,NA,NA,10,1.30403300585899,103.864928408355,"https://www.99.co/singapore/rooms/property/2-beach-road-hdb-eyWez5f9YFig4E5iV5kzEB",10,"SG","Central","Kallang","N/A","743.948115333336","Outside Range"
"84","2020/12/12 10:13:19","Rental","Common Room",84,"Room in 2 Hougang Avenue 3",310,3.1,NA,NA,100,1.36313720753257,103.893184540903,"https://www.99.co/singapore/rooms/property/2-hougang-avenue-3-hdb-cKuCokqWvWgnG5Snb5Zcgh",100,"SG","Northeast","Hougang","531376","528.906590910111","Outside Range"
"85","2020/12/12 10:13:26","Rental","Common Room",85,"Room in 20 Chai Chee Road",350,3.5,NA,NA,100,1.32627271243234,103.922885287154,"https://www.99.co/singapore/rooms/property/20-chai-chee-road-hdb-PCDTzH4HwBQohCYUDpHHFc",100,"SG","Southeast","Bedok","461020","541.307250602302","Outside Range"
"86","2020/12/12 10:13:32","Rental","Common Room",86,"Room in 20 Jalan Membina",800,8,NA,NA,100,1.28562459787446,103.825923251122,"https://www.99.co/singapore/rooms/property/20-jalan-membina-hdb-uGypFj3C5W8dDcXyuLuLWY",100,"SG","Central","Bukit Merah","168731","734.008483601876","Within Range"
"87","2020/12/12 10:13:38","Rental","Common Room",87,"Room in 20 Marine Terrace",700,1.08,NA,NA,646,1.30371588728855,103.915067020322,"https://www.99.co/singapore/rooms/property/20-marine-terrace-hdb-P2dgdhv3BcoodQ2T98YviJ",648.148148148148,"SG","Southeast","Marine Parade","440020","612.70185","Outside Range"
"88","2020/12/12 10:13:45","Rental","Common Room",88,"Room in 20 Telok Blangah Crescent",700,8.14,NA,NA,86,1.27691594809877,103.821818722889,"https://www.99.co/singapore/rooms/property/20-telok-blangah-crescent-hdb-5GYK3RgeqvRuosrqpurMe5",85.995085995086,"SG","Central","Bukit Merah","098915","641.759411930291","Within Range"
"89","2020/12/12 10:13:51","Rental","Master Room",89,"Room in 202 Marsiling Drive",950,1.36,NA,2,2,1.44315121142694,103.775164777049,"https://www.99.co/singapore/rooms/property/202-marsiling-drive-hdb-DqtNmPWMMUYAw6tNzBt4b3",698.529411764706,"SG","Northwest","Woodlands","730027","465.350266098612","Outside Range"
"90","2020/12/12 10:13:58","Rental","Master Room",90,"Room in 207 Tampines Street 21",800,4.44,NA,NA,180,1.35136271207896,103.952226216363,"https://www.99.co/singapore/rooms/property/207-tampines-street-21-hdb-BvbzaUfQLU6FdYQUtWg866",180.18018018018,"SG","Northeast","Tampines","520207","469.104324765742","Within Range"
"91","2020/12/12 10:14:05","Rental","Room",91,"Room in 207A Punggol Place",700,6.86,NA,NA,102,1.40028667892625,103.901012370624,"https://www.99.co/singapore/rooms/property/207a-punggol-place-hdb-HkNcCjsXAGjAYa3UNkC4M3",102.040816326531,"SG","Northeast","Punggol","821207","690.296857102307","Within Range"
"92","2020/12/12 10:14:11","Rental","Common Room",92,"Room in 208C Punggol Place",500,3.33,NA,NA,150,1.40094119675939,103.901144550587,"https://www.99.co/singapore/rooms/property/208c-punggol-place-hdb-bMWHSegBBGdEH9SzgRkyqD",150.15015015015,"SG","Northeast","Punggol","823208","690.296857102307","Outside Range"
"93","2020/12/12 10:14:18","Rental","Common Room",93,"Room in 211 Yishun Street 21",700,5.83,NA,NA,120,1.43174756189608,103.838292056566,"https://www.99.co/singapore/rooms/property/211-yishun-street-21-hdb-wrMoacubsBBNBB2bR3LXcX",120.068610634648,"SG","Northwest","Yishun","768610","503.555707815785","Within Range"
"94","2020/12/12 10:14:25","Rental","Common Room",94,"Room in 217 Tampines Street 23",650,5.42,NA,NA,120,1.35416816346777,103.951861755793,"https://www.99.co/singapore/rooms/property/217-tampines-street-23-hdb-MHeMY2uVDdXiVb4AhRMSXX",119.926199261993,"SG","Northeast","Tampines","520217","469.104324765742","Within Range"
"95","2020/12/12 10:14:31","Rental","Common Room",95,"Room in 22 Saint George's Road",1100,4.4,NA,NA,250,1.32520475650311,103.862445341683,"https://www.99.co/singapore/rooms/property/22-saint-georges-road-hdb-EpK8jLxZBQvqFdibqL9xUg",250,"SG","Central","Kallang","321022","665.030052588514","Outside Range"
"96","2020/12/12 10:14:44","Rental","Common Room",96,"Room in 222 Lorong 8 Toa Payoh",750,5,NA,NA,150,1.34177310664556,103.856039796964,"https://www.99.co/singapore/rooms/property/222-lorong-8-toa-payoh-hdb-MoTBi4boDAgXReEa8MHTzm",150,"SG","Central","Toa Payoh","310222","505.663677748197","Within Range"
"97","2020/12/12 10:14:51","Rental","Common Room",97,"Room in 223A Compassvale Walk",600,4,NA,NA,150,1.38813210325051,103.897257646377,"https://www.99.co/singapore/rooms/property/223a-compassvale-walk-hdb-qmtKrcdsNNR7cERUb9oRJ8",150,"SG","Northeast","Seng Kang","541223","456.748843220546","Within Range"
"98","2020/12/12 10:14:57","Rental","Common Room",98,"Room in 224 Simei Street 4",850,5.31,NA,NA,160,1.34287178966992,103.95756183721,"https://www.99.co/singapore/rooms/property/224-simei-street-4-hdb-Zz6HUzW9o4FyWsdPVvF23L",160.075329566855,"SG","Southeast","Simei","520224","611.216161668543","Within Range"
"99","2020/12/12 10:15:05","Rental","Common Room",99,"Room in 227 Tampines Street 23",380,3.8,NA,NA,100,1.35470798068721,103.955002715196,"https://www.99.co/singapore/rooms/property/227-tampines-street-23-hdb-jkqHMXYSaxjp7nNQSSmBeM",100,"SG","Northeast","Tampines","521227","469.104324765742","Outside Range"
"100","2020/12/12 10:15:12","Rental","Common Room",100,"Room in 227 Tampines Street 23",800,10,NA,NA,80,1.35470798068721,103.955002715196,"https://www.99.co/singapore/rooms/property/227-tampines-street-23-hdb-nqSpXu9p2gseNUoxkHcZ8G",80,"SG","Northeast","Tampines","521227","469.104324765742","Within Range"
"101","2020/12/12 10:15:18","Rental","Common Room",101,"Room in 23 Balam Road",780,6.5,NA,NA,120,1.33097096666447,103.886540431592,"https://www.99.co/singapore/rooms/property/23-balam-road-hdb-y4w8jzGw9wHZwXHxHU2WJh",120,"SG","Southeast","Geylang","370023","578.954462619047","Within Range"
"102","2020/12/12 10:15:24","Rental","Common Room",102,"Room in 23 Jalan Membina",700,4.67,NA,NA,150,1.28474832742362,103.82687567732,"https://www.99.co/singapore/rooms/property/23-jalan-membina-hdb-XFPdmtn3GkopScFsNujTvP",149.892933618844,"SG","Central","Bukit Merah","169485","873.097139657288","Within Range"
"103","2020/12/12 10:15:30","Rental","Master Room",103,"Room in 23 Teban Gardens Road",1100,9.17,NA,NA,120,1.32285773181425,103.73923873397,"https://www.99.co/singapore/rooms/property/23-teban-gardens-road-hdb-o72bkfPfTyuBLtRQYnTNYZ",119.956379498364,"SG","Southwest","Jurong East","600023","313.362271996696","Within Range"
"104","2020/12/12 10:15:37","Rental","Common Room",104,"Room in 230 Pasir Ris Street 21",600,6,NA,NA,100,1.37256156363969,103.960998684858,"https://www.99.co/singapore/rooms/property/230-pasir-ris-street-21-hdb-EfcZUgCygim2eJCwRaaJk9",100,"SG","Northeast","Pasir Ris","510230","573.872904376391","Within Range"
"105","2020/12/12 10:15:44","Rental","Common Room",105,"Room in 230 Pasir Ris Street 21",600,5,NA,NA,120,1.37256156363969,103.960998684858,"https://www.99.co/singapore/rooms/property/230-pasir-ris-street-21-hdb-K9em5Uu8gxXviHjmcHzi8b",120,"SG","Northeast","Pasir Ris","510230","573.872904376391","Within Range"
"106","2020/12/12 10:15:50","Rental","Common Room",106,"Room in 230C Tampines Street 24",650,5,NA,NA,130,1.35542753409621,103.951447223791,"https://www.99.co/singapore/rooms/property/230c-tampines-street-24-hdb-8Kp72kpCRr4btGodZipDqM",130,"SG","Northeast","Tampines","526230","469.104324765742","Within Range"
"107","2020/12/12 10:15:57","Rental","Common Room",107,"Room in 230C Tampines Street 24",400,2.86,NA,NA,140,1.35542753409621,103.951447223791,"https://www.99.co/singapore/rooms/property/230c-tampines-street-24-hdb-ntmbFi25L9MRCMeHkAKba4",139.86013986014,"SG","Northeast","Tampines","526230","469.104324765742","Outside Range"
"108","2020/12/12 10:16:04","Rental","Common Room",108,"Room in 232 Bain Street",880,5.87,NA,NA,150,1.29685311080016,103.853347534791,"https://www.99.co/singapore/rooms/property/232-bain-street-hdb-BEEEptZjqszQehJGVDExsh",149.914821124361,"SG","Central","Downtown Core","180231","896.90359852514","Within Range"
"109","2020/12/12 10:16:10","Rental","Common Room",109,"Room in 232 Bain Street",850,5.31,NA,NA,160,1.29685311080016,103.853347534791,"https://www.99.co/singapore/rooms/property/232-bain-street-hdb-sV7TRJUp6dwXPMSWzpzDw5",160.075329566855,"SG","Central","Downtown Core","180231","896.90359852514","Within Range"
"110","2020/12/12 10:16:17","Rental","Common Room",110,"Room in 233C Sumang Lane",700,5.83,NA,NA,120,1.40173160210896,103.891041471826,"https://www.99.co/singapore/rooms/property/233c-sumang-lane-hdb-E9ScGvtMvSp3aBCm5wfq2T",120.068610634648,"SG","Northeast","Punggol","823233","571.685263647857","Within Range"
"111","2020/12/12 10:16:23","Rental","Room",111,"Room in 235 Simei Street 4",650,2.17,NA,1,1,1.34295970419771,103.955474153095,"https://www.99.co/singapore/rooms/property/235-simei-street-4-hdb-bAvcvGcnRQnLRL7hcA75Fj",299.539170506912,"SG","Southeast","Simei","520235","611.216161668543","Outside Range"
"112","2020/12/12 10:16:30","Rental","Common Room",112,"Room in 237 Lorong 1 Toa Payoh",850,5.67,NA,NA,150,1.33977315087539,103.852242265569,"https://www.99.co/singapore/rooms/property/237-lorong-1-toa-payoh-hdb-Km6QG8FkvGuJyT4hJhns45",149.911816578483,"SG","Central","Toa Payoh","310237","505.663677748197","Within Range"
"113","2020/12/12 10:16:36","Rental","Common Room",113,"Room in 239 Serangoon Avenue 2",800,6.67,NA,NA,120,1.35319103281956,103.868691793358,"https://www.99.co/singapore/rooms/property/239-serangoon-avenue-2-hdb-6DinazdLg7XsWaQpEeWNSk",119.940029985007,"SG","Southeast","Serangoon","550301","556.934211839537","Within Range"
"114","2020/12/12 10:16:43","Rental","Common Room",114,"Room in 240 Hougang Street 22",630,4.2,NA,NA,150,1.35642266612874,103.890651695359,"https://www.99.co/singapore/rooms/property/240-hougang-street-22-hdb-hkTtKqm53kMGPhi5Km58x5",150,"SG","Northeast","Hougang","530110","488.078073662105","Within Range"
"115","2020/12/12 10:16:49","Rental","Common Room",115,"Room in 243 Bukit Panjang Ring Road",600,2.61,NA,NA,230,1.38052075593874,103.771291134609,"https://www.99.co/singapore/rooms/property/243-bukit-panjang-ring-road-hdb-gwHufbNDZE5f28RwKiC6nF",229.885057471264,"SG","Northwest","Bukit Panjang","670443","546.694234830271","Outside Range"
"116","2020/12/12 10:16:56","Rental","Common Room",116,"Room in 250 Hougang Avenue 3",750,5,NA,NA,150,1.35957926011492,103.891304944902,"https://www.99.co/singapore/rooms/property/250-hougang-avenue-3-hdb-uhZxYffAFPNa4g4pRQcLB5",150,"SG","Northeast","Hougang","538882","528.906590910111","Within Range"
"117","2020/12/12 10:17:03","Rental","Common Room",117,"Room in 256 Simei Street 1",650,3.61,NA,2,2,1.34304157569867,103.951763430086,"https://www.99.co/singapore/rooms/property/256-simei-street-1-hdb-yJKQ24wyRMXLixcKsNUxwS",180.05540166205,"SG","Southeast","Simei","520256","611.216161668543","Outside Range"
"118","2020/12/12 10:17:10","Rental","Common Room",118,"Room in 259C Compassvale Road",650,4.33,NA,NA,150,1.39338846017973,103.898081358537,"https://www.99.co/singapore/rooms/property/259c-compassvale-road-hdb-FNxNMTBGTTuPRKN8SfUeyT",150.115473441109,"SG","Northeast","Seng Kang","543259","508.206200682984","Within Range"
"119","2020/12/12 10:17:18","Rental","Common Room",119,"Room in 26 Teck Whye Lane",370,3.81,NA,NA,97,1.37762112372223,103.755740001262,"https://www.99.co/singapore/rooms/property/26-teck-whye-lane-hdb-kgd5ymKghFWrV2RTo3Rigb",97.1128608923885,"SG","Southwest","Choa Chu Kang","680026","541.847336835498","Outside Range"
"120","2020/12/12 10:17:25","Rental","Common Room",120,"Room in 265 Toh Guan Road",900,9,NA,NA,100,1.34070811731142,103.744702329438,"https://www.99.co/singapore/rooms/property/265-toh-guan-road-hdb-4urdXrcfSCx6Wk2NAa9rva",100,"SG","Southwest","Jurong East","600265","372.403333230436","Within Range"
"121","2020/12/12 10:17:31","Rental","Common Room",121,"Room in 26D Jalan Membina",900,6.92,NA,NA,130,1.2820988398716,103.825202810934,"https://www.99.co/singapore/rooms/property/26d-jalan-membina-hdb-nVn8uKkSd8iUVuRctfPQSM",130.057803468208,"SG","Central","Bukit Merah","161026","747.049049931791","Within Range"
"122","2020/12/12 10:17:37","Rental","Common Room",122,"Room in 271 Tampines Street 21",760,6.33,NA,NA,120,1.34980832347155,103.949577963482,"https://www.99.co/singapore/rooms/property/271-tampines-street-21-hdb-KX3xSKTv7y8KiPNNwcDmj6",120.063191153239,"SG","Northeast","Tampines","520271","469.104324765742","Within Range"
"123","2020/12/12 10:17:43","Rental","Common Room",123,"Room in 282C Sengkang East Avenue",850,8.5,NA,NA,100,1.38509615954889,103.892548305538,"https://www.99.co/singapore/rooms/property/282c-sengkang-east-avenue-hdb-pfYjze3B9oTvhJYvSzPWL7",100,"SG","Northeast","Seng Kang","543282","508.206200682984","Within Range"
"124","2020/12/12 10:17:57","Rental","Common Room",124,"Room in 28B Dover Crescent",800,8,NA,NA,100,1.30544397285962,103.781869025225,"https://www.99.co/singapore/rooms/property/28b-dover-crescent-hdb-UadZuGPRmFqQ7JJE5qQHx6",100,"SG","Southwest","N/A","132028","1089.10934659267","Within Range"
"125","2020/12/12 10:18:03","Rental","Common Room",125,"Room in 28D Dover Crescent",700,7,NA,NA,100,1.30608315201393,103.782472428347,"https://www.99.co/singapore/rooms/property/28d-dover-crescent-hdb-yWQx3WmHonB4QQieQm4B3a",100,"SG","Southwest","N/A","134028","1089.10934659267","Within Range"
"126","2020/12/12 10:18:10","Rental","Master Room",126,"Room in 292B Compassvale Street",1000,1,NA,1,1,1.39539858831189,103.898745037243,"https://www.99.co/singapore/rooms/property/292b-compassvale-street-hdb-C6g6HD2vShPnH8zoYRcWdW",1000,"SG","Northeast","Seng Kang","545091","508.206200682984","Outside Range"
"127","2020/12/12 10:18:16","Rental","Common Room",127,"Room in 3 Dover Road",760,1.09,NA,1,1,1.30373592079545,103.782443789544,"https://www.99.co/singapore/rooms/property/3-dover-road-hdb-TBFWfLGjJswN8CLZYbKSgX",697.247706422018,"SG","Southwest","N/A","130003","1089.10934659267","Outside Range"
"128","2020/12/12 10:18:22","Rental","Common Room",128,"Room in 3 Joo Chiat Road",1000,10,NA,NA,100,1.3158852318814,103.899155404874,"https://www.99.co/singapore/rooms/property/3-joo-chiat-road-hdb-A9c6edXq4mXqqKxAvndgY4",100,"SG","Southeast","Geylang","420002","608.596216375891","Within Range"
"129","2020/12/12 10:18:28","Rental","Common Room",129,"Room in 3 Joo Chiat Road",1000,6.25,NA,NA,160,1.3158852318814,103.899155404874,"https://www.99.co/singapore/rooms/property/3-joo-chiat-road-hdb-wVuhQfhHvpxfBZedo8ZN5J",160,"SG","Southeast","Geylang","420002","608.596216375891","Within Range"
"130","2020/12/12 10:18:35","Rental","Common Room",130,"Room in 3 Pine Close",900,6,NA,NA,150,1.30692877602799,103.883110476119,"https://www.99.co/singapore/rooms/property/3-pine-close-hdb-eEyLnDhXe5NuL6ZPwmit4n",150,"SG","Southeast","Geylang","398006","511.219059704674","Within Range"
"131","2020/12/12 10:18:41","Rental","Common Room",131,"Room in 3 Saint George's Road",800,6.67,NA,NA,120,1.32258735187372,103.861107276991,"https://www.99.co/singapore/rooms/property/3-saint-georges-road-hdb-aKyBLZe4rMTKRWkJvQXTSR",119.940029985007,"SG","Central","Kallang","320003","821.837927430103","Within Range"
"132","2020/12/12 10:18:49","Rental","Master Room",132,"Room in 3 Tanjong Pagar Plaza",1000,9.35,NA,NA,107,1.27561918589931,103.842431306625,"https://www.99.co/singapore/rooms/property/3-tanjong-pagar-plaza-hdb-eMRBGJvGgCpvnitZtnEyhT",106.951871657754,"SG","Central","Outram","081003","762.453935551778","Within Range"
"133","2020/12/12 10:18:55","Rental","Common Room",133,"Room in 30 Cassia Crescent",650,5.42,NA,NA,120,1.30944315518038,103.883336276334,"https://www.99.co/singapore/rooms/property/30-cassia-crescent-hdb-rFYWNryhAcErGoKAcYgaha",119.926199261993,"SG","Southeast","Geylang","399719","511.219059704674","Within Range"
"134","2020/12/12 10:19:02","Rental","Common Room",134,"Room in 301 Bukit Batok Street 31",700,5.83,NA,NA,120,1.35676942740181,103.748774260571,"https://www.99.co/singapore/rooms/property/301-bukit-batok-street-31-hdb-hCr3MrGvy2Rer3id5ocCFk",120.068610634648,"SG","Southwest","Bukit Batok","650301","469.09966688433","Within Range"
"135","2020/12/12 10:19:08","Rental","Common Room",135,"Room in 301A Anchorvale Drive",700,5.83,NA,NA,120,1.38902209670853,103.8917280092,"https://www.99.co/singapore/rooms/property/301a-anchorvale-drive-hdb-9mpyQRjNfZFrYDZ2mnGMF",120.068610634648,"SG","Northeast","Seng Kang","541301","508.206200682984","Within Range"
"136","2020/12/12 10:19:14","Rental","Common Room",136,"Room in 303 Ang Mo Kio Avenue 1",750,3.75,NA,NA,200,1.36664920473673,103.84525455598,"https://www.99.co/singapore/rooms/property/303-ang-mo-kio-avenue-1-hdb-kAQCuMKYoRGLgH58q4G5QP",200,"SG","Central","Ang Mo Kio","569839","510.507577396824","Outside Range"
"137","2020/12/12 10:19:21","Rental","Common Room",137,"Room in 306 Clementi Avenue 4",800,7.27,NA,NA,110,1.32143826057397,103.765901268051,"https://www.99.co/singapore/rooms/property/306-clementi-avenue-4-hdb-JWaBDTP59HSfNmbnPTtFxL",110.041265474553,"SG","Southwest","Clementi","N/A","664.176707888888","Within Range"
"138","2020/12/12 10:19:27","Rental","Common Room",138,"Room in 307 Serangoon Avenue 2",1000,8.33,NA,NA,120,1.35462817749303,103.867068733428,"https://www.99.co/singapore/rooms/property/307-serangoon-avenue-2-hdb-uVceXiVCKRZMKTyh7sY9Hm",120.048019207683,"SG","Southeast","Serangoon","550304","471.329508460806","Within Range"
"139","2020/12/12 10:19:34","Rental","Common Room",139,"Room in 307D Anchorvale Road",700,5,NA,NA,140,1.39029890072188,103.886489261901,"https://www.99.co/singapore/rooms/property/307d-anchorvale-road-hdb-xqfaoUvc2vGsnKuvGbY9G6",140,"SG","Northeast","Seng Kang","540307","508.206200682984","Within Range"
"140","2020/12/12 10:19:40","Rental","Master Room",140,"Room in 309 Hougang Avenue 5",400,2.65,NA,NA,151,1.36620942908541,103.895144891502,"https://www.99.co/singapore/rooms/property/309-hougang-avenue-5-hdb-7ypnBvDL8dXNHypffaTiVf",150.943396226415,"SG","Northeast","Hougang","536451","528.906590910111","Outside Range"
"141","2020/12/12 10:19:47","Rental","Common Room",141,"Room in 309 Shunfu Road",850,5.31,NA,NA,160,1.35091296258286,103.837585157698,"https://www.99.co/singapore/rooms/property/309-shunfu-road-hdb-fGGU9SCsZNe6cipRUpcLqc",160.075329566855,"SG","Central","Bishan","574339","618.719674735933","Within Range"
"142","2020/12/12 10:19:53","Rental","Common Room",142,"Room in 310 Shunfu Road",800,5.33,NA,NA,150,1.35085167873465,103.838679123356,"https://www.99.co/singapore/rooms/property/310-shunfu-road-hdb-Ao5xMdYcarnxCsA4HdacDL",150.093808630394,"SG","Central","Bishan","573993","618.719674735933","Within Range"
"143","2020/12/12 10:19:59","Rental","Common Room",143,"Room in 310 Shunfu Road",750,4.69,NA,NA,160,1.35085167873465,103.838679123356,"https://www.99.co/singapore/rooms/property/310-shunfu-road-hdb-YqYp3A5hqyS2qF9xhXyee7",159.914712153518,"SG","Central","Bishan","573993","618.719674735933","Within Range"
"144","2020/12/12 10:20:06","Rental","Common Room",144,"Room in 311 Ubi Avenue 1",700,4.67,NA,NA,150,1.32994110077369,103.903301445157,"https://www.99.co/singapore/rooms/property/311-ubi-avenue-1-hdb-6DjyTzLRb5xEKfRhtnXVJm",149.892933618844,"SG","Southeast","Geylang","400311","511.219059704674","Within Range"
"145","2020/12/12 10:20:13","Rental","Common Room",145,"Room in 313 Shunfu Road",750,5,NA,NA,150,1.35151925522812,103.837228818191,"https://www.99.co/singapore/rooms/property/313-shunfu-road-hdb-MGxp8SyWVp9JFerwSijnH5",150,"SG","Central","Bishan","574339","618.719674735933","Within Range"
"146","2020/12/12 10:20:19","Rental","Common Room",146,"Room in 313 Ubi Avenue 1",380,3.8,NA,NA,100,1.32906022188765,103.903899355526,"https://www.99.co/singapore/rooms/property/313-ubi-avenue-1-hdb-nYLZazMXKs27PfYmYM84Qd",100,"SG","Southeast","Geylang","400313","511.219059704674","Within Range"
"147","2020/12/12 10:20:26","Rental","Common Room",147,"Room in 314 Ubi Avenue 1",600,6,NA,NA,100,1.32929452580122,103.903634766965,"https://www.99.co/singapore/rooms/property/314-ubi-avenue-1-hdb-mB6ykJTCqP9sdAQZ9WVczg",100,"SG","Southeast","Geylang","400314","511.219059704674","Within Range"
"148","2020/12/12 10:20:32","Rental","Common Room",148,"Room in 316 Ubi Avenue 1",850,7.08,NA,NA,120,1.32942959489356,103.902786753395,"https://www.99.co/singapore/rooms/property/316-ubi-avenue-1-hdb-Sriv2SjYbV8QrAY4YMvscc",120.056497175141,"SG","Southeast","Geylang","400316","511.219059704674","Within Range"
"149","2020/12/12 10:20:38","Rental","Common Room",149,"Room in 316C Punggol Way",750,6.25,NA,NA,120,1.40897577474179,103.897024808292,"https://www.99.co/singapore/rooms/property/316c-punggol-way-hdb-3oFihTUqESQ8iniuXBjmt8",120,"SG","Northeast","Punggol","823316","571.685263647857","Within Range"
"150","2020/12/12 10:20:45","Rental","Master Room",150,"Room in 319 Clementi Avenue 4",1100,4.4,NA,NA,250,1.31738023737383,103.764787022864,"https://www.99.co/singapore/rooms/property/319-clementi-avenue-4-hdb-gdSE8dRA4Dn6qebSN3sTdb",250,"SG","Southwest","Clementi","120319","664.176707888888","Outside Range"
"151","2020/12/12 10:20:52","Rental","Common Room",151,"Room in 323C Sengkang East Way",700,5.83,NA,NA,120,1.39291333684104,103.892403304917,"https://www.99.co/singapore/rooms/property/323c-sengkang-east-way-hdb-ELSQ2CmdwDfsjHr2kR6EC3",120.068610634648,"SG","Northeast","Seng Kang","543323","508.206200682984","Within Range"
"152","2020/12/12 10:20:58","Rental","Common Room",152,"Room in 324 Ubi Avenue 1",350,3.5,NA,NA,100,1.32829434946576,103.904204443823,"https://www.99.co/singapore/rooms/property/324-ubi-avenue-1-hdb-DfCkTgd37qmRwdCyWKpffB",100,"SG","Southeast","Geylang","400324","511.219059704674","Within Range"
"153","2020/12/12 10:21:04","Rental","Common Room",153,"Room in 325 Serangoon Avenue 3",750,5,NA,NA,150,1.35093759016541,103.868683014792,"https://www.99.co/singapore/rooms/property/325-serangoon-avenue-3-hdb-KrVAGyUsuHjSFpWHr6wzym",150,"SG","Southeast","Serangoon","550325","556.934211839537","Within Range"
"154","2020/12/12 10:21:11","Rental","Common Room",154,"Room in 328 Hougang Avenue 5",720,5.58,NA,NA,129,1.36874369807704,103.896797055652,"https://www.99.co/singapore/rooms/property/328-hougang-avenue-5-hdb-XKnJzx6kG3KwPzg9gqwkWf",129.032258064516,"SG","Northeast","Hougang","530334","528.906590910111","Within Range"
"155","2020/12/12 10:21:17","Rental","Common Room",155,"Room in 33 Ghim Moh Link",1050,10.5,NA,NA,100,1.30977118024451,103.784714017294,"https://www.99.co/singapore/rooms/property/33-ghim-moh-link-hdb-UtkpbQduSVV35nrcK53cxF",100,"SG","Southwest","N/A","270033","873.914047502985","Within Range"
"156","2020/12/12 10:21:24","Rental","Common Room",156,"Room in 337 Woodlands Avenue 1",300,3,NA,NA,100,1.43071738741981,103.781743924595,"https://www.99.co/singapore/rooms/property/337-woodlands-avenue-1-hdb-yFf75tYTfri3ASjMD8VDvN",100,"SG","Northwest","Woodlands","738209","462.278716002517","Outside Range"
"157","2020/12/12 10:21:31","Rental","Common Room",157,"Room in 346 Ubi Avenue 1",330,3.3,NA,NA,100,1.32598165523672,103.89967337593,"https://www.99.co/singapore/rooms/property/346-ubi-avenue-1-hdb-mmMV3u7JLV4VHgS6aj4iC4",100,"SG","Southeast","Geylang","400346","511.219059704674","Outside Range"
"158","2020/12/12 10:21:37","Rental","Common Room",158,"Room in 357B Admiralty Drive",600,4,NA,NA,150,1.45024168257746,103.817316100829,"https://www.99.co/singapore/rooms/property/357b-admiralty-drive-hdb-whJU6yg2v5bWDBwUxgRHi7",150,"SG","Northwest","Sembawang","750355","692.795783898788","Within Range"
"159","2020/12/12 10:21:44","Rental","Common Room",159,"Room in 36 Bedok South Avenue 2",650,6.5,NA,NA,100,1.32163299655187,103.938441289401,"https://www.99.co/singapore/rooms/property/36-bedok-south-avenue-2-hdb-D8rS9kabXmn2aJSxjBxPTR",100,"SG","Southeast","Bedok","460036","576.888121633394","Within Range"
"160","2020/12/12 10:21:51","Rental","Common Room",160,"Room in 367 Tampines Street 34",700,3.5,NA,NA,200,1.35861946074159,103.960788620104,"https://www.99.co/singapore/rooms/property/367-tampines-street-34-hdb-RfxVR2g95CPg4MvnLkNT3h",200,"SG","Northeast","Tampines","520367","469.104324765742","Outside Range"
"161","2020/12/12 10:21:58","Rental","Master Room",161,"Room in 370 Bukit Batok Street 31",1200,9.23,NA,NA,130,1.35995741711977,103.749307337606,"https://www.99.co/singapore/rooms/property/370-bukit-batok-street-31-hdb-PvDnLitzA3tUC3pvZN23H6",130.010834236186,"SG","Southwest","Bukit Batok","650370","584.606972007204","Within Range"
"162","2020/12/12 10:22:04","Rental","Common Room",162,"Room in 387 Tampines Street 32",650,6.7,NA,NA,97,1.35530314366794,103.958776201426,"https://www.99.co/singapore/rooms/property/387-tampines-street-32-hdb-rSFKnb8WRMVwMaMhCMsekQ",97.0149253731343,"SG","Northeast","Tampines","520387","469.104324765742","Within Range"
"163","2020/12/12 10:22:11","Rental","Common Room",163,"Room in 4 Changi Village Road",1150,5.75,NA,NA,200,1.38909635615369,103.98746284567,"https://www.99.co/singapore/rooms/property/4-changi-village-road-hdb-5VjuTTeJ9jwAvw3qaz9nMY",200,"SG","Southeast","Changi","500004","574.627166873015","Within Range"
"164","2020/12/12 10:22:18","Rental","Common Room",164,"Room in 403 Sin Ming Avenue",998,11.09,NA,NA,90,1.3628703224303,103.833604034312,"https://www.99.co/singapore/rooms/property/403-sin-ming-avenue-hdb-dzT9V9oD8ZSJwoUwbwzGS5",89.9909828674482,"SG","Central","Bishan","N/A","618.719674735933","Within Range"
"165","2020/12/12 10:22:24","Rental","Common Room",165,"Room in 406 Pasir Ris Drive 6",600,5,NA,NA,120,1.373766566679,103.955388318547,"https://www.99.co/singapore/rooms/property/406-pasir-ris-drive-6-hdb-p2bRcQQCwMoTKSJEeCQNaW",120,"SG","Northeast","Pasir Ris","510406","573.872904376391","Within Range"
"166","2020/12/12 10:22:32","Rental","Common Room",166,"Room in 406 Tampines Street 41",900,7.5,NA,NA,120,1.35782898281102,103.945792875974,"https://www.99.co/singapore/rooms/property/406-tampines-street-41-hdb-mTNm5ap7C2XtLGXgAf4uYS",120,"SG","Northeast","Tampines","520406","473.693002146233","Within Range"
"167","2020/12/12 10:22:38","Rental","Common Room",167,"Room in 41 Bedok South Road",700,4.67,NA,NA,150,1.32105071817918,103.94080318215,"https://www.99.co/singapore/rooms/property/41-bedok-south-road-hdb-UpQvp44a7yTfjNHKvzUNDD",149.892933618844,"SG","Southeast","Bedok","460041","576.888121633394","Within Range"
"168","2020/12/12 10:22:44","Rental","Common Room",168,"Room in 41 Bedok South Road",560,4.67,NA,NA,120,1.32105071817918,103.94080318215,"https://www.99.co/singapore/rooms/property/41-bedok-south-road-hdb-yQJDPnkLThjL6vUx7q4ngJ",119.914346895075,"SG","Southeast","Bedok","460041","576.888121633394","Within Range"
"169","2020/12/12 10:22:51","Rental","Common Room",169,"Room in 410 Pandan Gardens",800,5,NA,NA,160,1.31900921124334,103.747433142313,"https://www.99.co/singapore/rooms/property/410-pandan-gardens-hdb-NfSkg2bEAtMZUtJSPhF9bK",160,"SG","Southwest","Jurong East","600410","372.403333230436","Within Range"
"170","2020/12/12 10:22:57","Rental","Common Room",170,"Room in 414 Serangoon Central",650,3.25,NA,NA,200,1.34880894396479,103.874405968198,"https://www.99.co/singapore/rooms/property/414-serangoon-central-hdb-VYnqihMKyJVo7znHYnHq4m",200,"SG","Southeast","Serangoon","550414","471.329508460806","Outside Range"
"171","2020/12/12 10:23:03","Rental","Common Room",171,"Room in 423 Bukit Batok West Avenue 2",600,3.33,NA,NA,180,1.36215691970024,103.744946718558,"https://www.99.co/singapore/rooms/property/423-bukit-batok-west-avenue-2-hdb-Apg74THymjyqUBThXtY8AL",180.18018018018,"SG","Southwest","Bukit Batok","640423","584.606972007204","Outside Range"
"172","2020/12/12 10:23:10","Rental","Master Room",172,"Room in 424 Bedok North Avenue 1",850,7.73,NA,NA,110,1.32842001017399,103.927482674529,"https://www.99.co/singapore/rooms/property/424-bedok-north-avenue-1-hdb-RLZTEMS5FDfHedBctXk9Ag",109.961190168176,"SG","Southeast","Bedok","460424","576.888121633394","Within Range"
"173","2020/12/12 10:23:17","Rental","Common Room",173,"Room in 425 Choa Chu Kang Avenue 4",750,6.82,NA,1,1,1.38121893045435,103.739482403988,"https://www.99.co/singapore/rooms/property/425-choa-chu-kang-avenue-4-hdb-jFQGErJi3rNaACzgjgEgwa",109.970674486804,"SG","Southwest","Choa Chu Kang","680425","503.009666620379","Within Range"
"174","2020/12/12 10:23:24","Rental","Common Room",174,"Room in 428 Ang Mo Kio Avenue 3",700,3.5,NA,NA,200,1.36893906457106,103.854412288513,"https://www.99.co/singapore/rooms/property/428-ang-mo-kio-avenue-3-hdb-SE5NbHPBqNAXPvP6nh7d3j",200,"SG","Central","Ang Mo Kio","560449","510.507577396824","Outside Range"
"175","2020/12/12 10:23:37","Rental","Master Room",175,"Room in 431 Clementi Avenue 3",1300,13,NA,NA,100,1.31377438724798,103.762535189721,"https://www.99.co/singapore/rooms/property/431-clementi-avenue-3-hdb-jrxGfQtubv2mc4MDNsFov7",100,"SG","Southwest","Clementi","120432","684.37728322133","Within Range"
"176","2020/12/12 10:23:43","Rental","Master Room",176,"Room in 433 Clementi Avenue 3",1200,8,NA,NA,150,1.31401622298473,103.761827364842,"https://www.99.co/singapore/rooms/property/433-clementi-avenue-3-hdb-bJEdmsMXrJRRsWhQXeoJ4K",150,"SG","Southwest","Clementi","120433","684.37728322133","Within Range"
"177","2020/12/12 10:23:50","Rental","Common Room",177,"Room in 441A Clementi Avenue 3",850,4.86,NA,NA,175,1.31463913092208,103.764797687774,"https://www.99.co/singapore/rooms/property/441a-clementi-avenue-3-hdb-UKz4vEfRanXxCahZvxnFzR",174.897119341564,"SG","Southwest","Clementi","129580","684.37728322133","Outside Range"
"178","2020/12/12 10:23:57","Rental","Common Room",178,"Room in 450A Bukit Batok West Avenue 6",750,7.5,NA,NA,100,1.352790911582,103.744536033565,"https://www.99.co/singapore/rooms/property/450a-bukit-batok-west-avenue-6-hdb-utSWd72snBbUCGpFCKDJMR",100,"SG","Southwest","Bukit Batok","651450","683.239798708312","Within Range"
"179","2020/12/12 10:24:04","Rental","Common Room",179,"Room in 455 Segar Road",650,6.5,NA,NA,100,1.38729105122453,103.770822142944,"https://www.99.co/singapore/rooms/property/455-segar-road-hdb-gPPPofAaQcuMTQmxdai8PK",100,"SG","Northwest","Bukit Panjang","677738","683.523056501963","Within Range"
"180","2020/12/12 10:24:10","Rental","Master Room",180,"Room in 455 Tampines Street 42",850,4.25,NA,NA,200,1.35735402015071,103.953913757097,"https://www.99.co/singapore/rooms/property/455-tampines-street-42-hdb-BJpEbuArPoyUgP9Zai8Bod",200,"SG","Northeast","Tampines","520455","469.104324765742","Within Range"
"181","2020/12/12 10:24:17","Rental","Master Room",181,"Room in 455B Ang Mo Kio Street 44",1000,3.33,NA,NA,300,1.36833017912554,103.858495667837,"https://www.99.co/singapore/rooms/property/455b-ang-mo-kio-street-44-hdb-bNs6vqSRqFqGD4htv6wYNZ",300.3003003003,"SG","Central","Ang Mo Kio","562455","560.514921309368","Outside Range"
"182","2020/12/12 10:24:24","Rental","Common Room",182,"Room in 455C Ang Mo Kio Street 44",700,6.36,NA,NA,110,1.3685648475481,103.857943144204,"https://www.99.co/singapore/rooms/property/455c-ang-mo-kio-street-44-hdb-ooxuQ7fBSvTVyGkrrL83eL",110.062893081761,"SG","Central","Ang Mo Kio","563455","560.514921309368","Within Range"
"183","2020/12/12 10:24:30","Rental","Common Room",183,"Room in 468 North Bridge Road",960,3.84,NA,NA,250,1.30539150676391,103.863222183958,"https://www.99.co/singapore/rooms/property/468-north-bridge-road-hdb-n2RYPd2fQuWVRSJPXxBWWk",250,"SG","Central","Kallang","190465","665.030052588514","Outside Range"
"184","2020/12/12 10:24:37","Rental","Common Room",184,"Room in 469 Pasir Ris Drive 6",700,3.5,NA,NA,200,1.37349977144259,103.957588753401,"https://www.99.co/singapore/rooms/property/469-pasir-ris-drive-6-hdb-7KkRo8MXBvGwfYsyEkeFcS",200,"SG","Northeast","Pasir Ris","510469","573.872904376391","Within Range"
"185","2020/12/12 10:24:44","Rental","Common Room",185,"Room in 473 Pasir Ris Drive 6",950,6.33,NA,NA,150,1.37449502119346,103.95736253025,"https://www.99.co/singapore/rooms/property/473-pasir-ris-drive-6-hdb-ZCJ8vJ8QJDpF24JhC6F4zP",150.078988941548,"SG","Northeast","Pasir Ris","510473","573.872904376391","Within Range"
"186","2020/12/12 10:24:51","Rental","Common Room",186,"Room in 48 Bendemeer Road",900,6,NA,NA,150,1.32332270615857,103.866399245801,"https://www.99.co/singapore/rooms/property/48-bendemeer-road-hdb-bEzXr2RFHCXpeFEkNRCAoZ",150,"SG","Central","Kallang","330047","821.837927430103","Within Range"
"187","2020/12/12 10:24:59","Rental","Common Room",187,"Room in 484 Jurong West Avenue 1",700,6.54,NA,NA,107,1.34820888556579,103.726357754906,"https://www.99.co/singapore/rooms/property/484-jurong-west-avenue-1-hdb-XE8ApsPwY2EpRwThkZfRNS",107.033639143731,"SG","Southwest","Jurong West","640484","421.509140166665","Within Range"
"188","2020/12/12 10:25:05","Rental","Common Room",188,"Room in 487B Choa Chu Kang Avenue 5",650,5.42,NA,NA,120,1.37635512444697,103.738360161731,"https://www.99.co/singapore/rooms/property/487b-choa-chu-kang-avenue-5-hdb-hYxLVWZ7KfmLsDtCiuTqWQ",119.926199261993,"SG","Southwest","Choa Chu Kang","682487","503.009666620379","Outside Range"
"189","2020/12/12 10:25:12","Rental","Common Room",189,"Room in 494G Tampines Street 45",550,5.5,NA,NA,100,1.36313399027524,103.955449882858,"https://www.99.co/singapore/rooms/property/494g-tampines-street-45-hdb-UgwMHw3Hqp3CaTrXcZ2Xgk",100,"SG","Northeast","Tampines","527494","469.104324765742","Within Range"
"190","2020/12/12 10:25:20","Rental","Common Room",190,"Room in 494G Tampines Street 45",550,3.67,NA,NA,150,1.36313399027524,103.955449882858,"https://www.99.co/singapore/rooms/property/494g-tampines-street-45-hdb-i8irtHNobhHeC2FHDgaEXC",149.863760217984,"SG","Northeast","Tampines","527494","469.104324765742","Outside Range"
"191","2020/12/12 10:25:26","Rental","Common Room",191,"Room in 50 Strathmore Avenue",750,3,NA,NA,250,1.29384533839787,103.808727859208,"https://www.99.co/singapore/rooms/property/50-strathmore-avenue-hdb-gagiUf8rgmnuMMe4UFW3R6",250,"SG","Central","Queenstown","140050","893.913778246477","Outside Range"
"192","2020/12/12 10:25:33","Rental","Common Room",192,"Room in 50 Strathmore Avenue",1000,10,NA,NA,100,1.29384533839787,103.808727859208,"https://www.99.co/singapore/rooms/property/50-strathmore-avenue-hdb-pB9dgRmczDgPw5YdarHe8",100,"SG","Central","Queenstown","140050","893.913778246477","Within Range"
"193","2020/12/12 10:25:39","Rental","Common Room",193,"Room in 506 Bukit Batok Street 52",750,5,NA,NA,150,1.35224831626533,103.754663779161,"https://www.99.co/singapore/rooms/property/506-bukit-batok-street-52-hdb-ev5EpnnX2YxXFgGQLRQutd",150,"SG","Southwest","Bukit Batok","650506","469.09966688433","Within Range"
"194","2020/12/12 10:25:46","Rental","Common Room",194,"Room in 507 West Coast Drive",650,65,NA,NA,10,1.31207968902337,103.760802118745,"https://www.99.co/singapore/rooms/property/507-west-coast-drive-hdb-f6YX7jsDi7NZDCteDUSwbR",10,"SG","Southwest","Clementi","120507","664.176707888888","Outside Range"
"195","2020/12/12 10:25:52","Rental","Common Room",195,"Room in 514 Serangoon North Avenue 4",600,6,NA,NA,100,1.37089010645535,103.874391232178,"https://www.99.co/singapore/rooms/property/514-serangoon-north-avenue-4-hdb-ykg5RrQmXX8YM6JUvQ7S6P",100,"SG","Central","Serangoon North","550154","556.934211839537","Within Range"
"196","2020/12/12 10:25:59","Rental","Common Room",196,"Room in 515D Tampines Central 7",730,6.08,NA,NA,120,1.35696233709257,103.939269203294,"https://www.99.co/singapore/rooms/property/515d-tampines-central-7-hdb-qgWfcnsxSALMCrsjLxyVAA",120.065789473684,"SG","Northeast","Tampines","524515","635.970346353951","Within Range"
"197","2020/12/12 10:26:06","Rental","Common Room",197,"Room in 52 Commonwealth Drive",900,4.5,NA,NA,200,1.30190334034961,103.797243238583,"https://www.99.co/singapore/rooms/property/52-commonwealth-drive-hdb-oFwfcGq857BCm7Axi6uJEg",200,"SG","Central","Queenstown","142052","893.913778246477","Within Range"
"198","2020/12/12 10:26:12","Rental","Common Room",198,"Room in 522B Tampines Central 7",700,5.83,NA,NA,120,1.35782276633149,103.939084809112,"https://www.99.co/singapore/rooms/property/522b-tampines-central-7-hdb-RfKXhZUibosuEwjWu4ZSz6",120.068610634648,"SG","Northeast","Tampines","522522","635.970346353951","Within Range"
"199","2020/12/12 10:26:18","Rental","Common Room",199,"Room in 522C Tampines Central 7",750,5,NA,NA,150,1.35800481305317,103.939416135735,"https://www.99.co/singapore/rooms/property/522c-tampines-central-7-hdb-zAQ57UKKBvz2MQTLSeUGhg",150,"SG","Northeast","Tampines","523522","635.970346353951","Within Range"
"200","2020/12/12 10:26:26","Rental","Common Room",200,"Room in 524 Jelapang Road",500,0.39,NA,1,1,1.38613549596373,103.765863505451,"https://www.99.co/singapore/rooms/property/524-jelapang-road-hdb-2AjQwsAm2eSAhbs9hJEqHP",1282.05128205128,"SG","Northwest","Bukit Panjang","677741","496.982069038008","Outside Range"
"201","2020/12/12 10:26:33","Rental","Master Room",201,"Room in 524 Jelapang Road",800,0.62,NA,1,1,1.38613549596373,103.765863505451,"https://www.99.co/singapore/rooms/property/524-jelapang-road-hdb-DNZsCfNT4uscFGQvYhdsZG",1290.32258064516,"SG","Northwest","Bukit Panjang","677741","496.982069038008","Outside Range"
"202","2020/12/12 10:26:39","Rental","Common Room",202,"Room in 529 Choa Chu Kang Street 51",700,4.35,NA,2,2,1.39219218072532,103.742143506429,"https://www.99.co/singapore/rooms/property/529-choa-chu-kang-street-51-hdb-L87vNeSqJCZGddzVMrbkcC",160.919540229885,"SG","Northwest","Choa Chu Kang","680533","503.009666620379","Outside Range"
"203","2020/12/12 10:26:45","Rental","Common Room",203,"Room in 53 New Upper Changi Road",700,2.8,NA,NA,250,1.32432684067536,103.942429994179,"https://www.99.co/singapore/rooms/property/53-new-upper-changi-road-hdb-rZAMmXkoTFrYXF62GE5aDm",250,"SG","Southeast","Bedok","461053","560.995623593305","Outside Range"
"204","2020/12/12 10:26:52","Rental","Common Room",204,"Room in 530 Bedok North Street 3",600,6,NA,NA,100,1.33371332018834,103.927020293564,"https://www.99.co/singapore/rooms/property/530-bedok-north-street-3-hdb-NHqacJ5mR8bmUsPa5zdDEi",100,"SG","Southeast","Bedok","460530","560.995623593305","Within Range"
"205","2020/12/12 10:26:59","Rental","Master Room",205,"Room in 536 Ang Mo Kio Avenue 10",1250,10.42,NA,NA,120,1.37447378519741,103.854100515826,"https://www.99.co/singapore/rooms/property/536-ang-mo-kio-avenue-10-hdb-2gpLxbYTyDwXqgQooGZBP3",119.961612284069,"SG","Central","Ang Mo Kio","560532","510.507577396824","Within Range"
"206","2020/12/12 10:27:07","Rental","Master Room",206,"Room in 537 Ang Mo Kio Avenue 5",888,4.44,NA,NA,200,1.37520009617689,103.853059796325,"https://www.99.co/singapore/rooms/property/537-ang-mo-kio-avenue-5-hdb-Zz2CiD43aF2UPKWR5xCE9a",200,"SG","Central","Ang Mo Kio","569206","510.507577396824","Within Range"
"207","2020/12/12 10:27:14","Rental","Common Room",207,"Room in 54 Cassia Crescent",700,5.83,NA,NA,120,1.31004800551081,103.884678198119,"https://www.99.co/singapore/rooms/property/54-cassia-crescent-hdb-W3k2hqNwps99a8d8NzUAeQ",120.068610634648,"SG","Southeast","Geylang","390036","511.219059704674","Within Range"
"208","2020/12/12 10:27:21","Rental","Common Room",208,"Room in 545 Bedok North Street 3",899,4.5,NA,2,2,1.3300514240201,103.924118031423,"https://www.99.co/singapore/rooms/property/545-bedok-north-street-3-hdb-PQqge5St8fqTdtNut5qBT",199.777777777778,"SG","Southeast","Bedok","460545","576.888121633394","Within Range"
"209","2020/12/12 10:27:28","Rental","Common Room",209,"Room in 546 Ang Mo Kio Avenue 10",800,4,NA,NA,200,1.37365123866692,103.857022220393,"https://www.99.co/singapore/rooms/property/546-ang-mo-kio-avenue-10-hdb-NdDNvt6AvhsoAhReDWc6j6",200,"SG","Central","Ang Mo Kio","569869","484.242339088512","Within Range"
"210","2020/12/12 10:27:34","Rental","Common Room",210,"Room in 546 Serangoon North Avenue 3",800,5.33,NA,NA,150,1.3748252331313,103.870146844732,"https://www.99.co/singapore/rooms/property/546-serangoon-north-avenue-3-hdb-uYznThMDpJ4FLBevufcv2d",150.093808630394,"SG","Central","Serangoon North","554360","556.934211839537","Within Range"
"211","2020/12/12 10:27:42","Rental","Common Room",211,"Room in 55 Stirling Road",800,5.33,NA,NA,150,1.2965892359168,103.804175434758,"https://www.99.co/singapore/rooms/property/55-stirling-road-hdb-tqwMsbCbxvwdQg2vqeeKja",150.093808630394,"SG","Central","Queenstown","141055","865.261979190113","Within Range"
"212","2020/12/12 10:27:48","Rental","Common Room",212,"Room in 550 Bedok North Avenue 1",550,3.67,NA,NA,150,1.33269317952792,103.926617402908,"https://www.99.co/singapore/rooms/property/550-bedok-north-avenue-1-hdb-yxrKWhKpcowiazBD2aqDBg",149.863760217984,"SG","Southeast","Bedok","469627","560.995623593305","Outside Range"
"213","2020/12/12 10:27:54","Rental","Master Room",213,"Room in 556 Hougang Street 51",1000,9.35,NA,NA,107,1.3797347301581,103.890205700216,"https://www.99.co/singapore/rooms/property/556-hougang-street-51-hdb-CQRLPEwXUr94CuFZagLiEe",106.951871657754,"SG","Northeast","Hougang","530558","528.906590910111","Within Range"
"214","2020/12/12 10:28:00","Rental","Common Room",214,"Room in 560 Ang Mo Kio Avenue 10",600,4,NA,NA,150,1.37081626777723,103.859192334256,"https://www.99.co/singapore/rooms/property/560-ang-mo-kio-avenue-10-hdb-wrJPxWtExyQKRNNw3ZbHyD",150,"SG","Central","Ang Mo Kio","560561","560.514921309368","Within Range"
"215","2020/12/12 10:28:07","Rental","Common Room",215,"Room in 571 Ang Mo Kio Avenue 3",800,6.67,NA,NA,120,1.37005501296045,103.85488055876,"https://www.99.co/singapore/rooms/property/571-ang-mo-kio-avenue-3-hdb-fkMqZvCoCHjYZ3j9a9Jeok",119.940029985007,"SG","Central","Ang Mo Kio","560573","510.507577396824","Within Range"
"216","2020/12/12 10:28:13","Rental","Master Room",216,"Room in 584 Ang Mo Kio Avenue 3",900,5.59,NA,1,1,1.37071307985917,103.853497803014,"https://www.99.co/singapore/rooms/property/584-ang-mo-kio-avenue-3-hdb-FESLC6AThTjRmA43zrHeSB",161.001788908766,"SG","Central","Ang Mo Kio","560573","510.507577396824","Within Range"
"217","2020/12/12 10:28:20","Rental","Common Room",217,"Room in 593B Montreal Link",750,3.75,NA,NA,200,1.45136997019675,103.828324578002,"https://www.99.co/singapore/rooms/property/593b-montreal-link-hdb-JL8MB43NV6RP8AukFTihP",200,"SG","Northwest","Sembawang","752592","692.795783898788","Within Range"
"218","2020/12/12 10:28:27","Rental","Common Room",218,"Room in 601A Tampines Avenue 9",780,15.6,NA,NA,50,1.36075948651836,103.936832524812,"https://www.99.co/singapore/rooms/property/601a-tampines-avenue-9-hdb-aQw94rEH7d6ZwN3WYMzYDM",50,"SG","Northeast","Tampines","521601","635.970346353951","Within Range"
"219","2020/12/12 10:28:33","Rental","Common Room",219,"Room in 607 Ang Mo Kio Avenue 4",800,5.71,NA,NA,140,1.38046758670095,103.838816721629,"https://www.99.co/singapore/rooms/property/607-ang-mo-kio-avenue-4-hdb-Yf5iDC6ZDLBtoq64wUzh6e",140.105078809107,"SG","Central","Ang Mo Kio","569948","510.507577396824","Within Range"
"220","2020/12/12 10:28:40","Rental","Common Room",220,"Room in 610 Yishun Street 61",600,4,NA,NA,150,1.42057938136499,103.836103032168,"https://www.99.co/singapore/rooms/property/610-yishun-street-61-hdb-PntcYJwzFVXRBpWsvqLCbV",150,"SG","Northwest","Yishun","768548","503.555707815785","Outside Range"
"221","2020/12/12 10:28:47","Rental","Common Room",221,"Room in 613 Bukit Panjang Ring Road",700,70,NA,NA,10,1.38436672930185,103.762046231912,"https://www.99.co/singapore/rooms/property/613-bukit-panjang-ring-road-hdb-AX78Nr6S6Px2KM55wMeqHB",10,"SG","Northwest","Bukit Panjang","670628","546.694234830271","Outside Range"
"222","2020/12/12 10:28:53","Rental","Common Room",222,"Room in 621 Ang Mo Kio Avenue 9",800,4,NA,NA,200,1.38302875911261,103.840669099959,"https://www.99.co/singapore/rooms/property/621-ang-mo-kio-avenue-9-hdb-7wCFV6XnroQLm2ejRYcoAf",200,"SG","Central","Ang Mo Kio","560622","510.507577396824","Within Range"
"223","2020/12/12 10:28:59","Rental","Common Room",223,"Room in 621 Ang Mo Kio Avenue 9",750,5.81,NA,1,1,1.38302875911261,103.840669099959,"https://www.99.co/singapore/rooms/property/621-ang-mo-kio-avenue-9-hdb-j9CNfep6XVS9GNVnegmS8T",129.087779690189,"SG","Central","Ang Mo Kio","560622","510.507577396824","Within Range"
"224","2020/12/12 10:29:07","Rental","Common Room",224,"Room in 63 Sims Place",720,7.2,NA,NA,100,1.31659507864199,103.879545641729,"https://www.99.co/singapore/rooms/property/63-sims-place-hdb-FDwKaTcp34vrcG4LWotKHH",100,"SG","Southeast","Geylang","380063","608.596216375891","Within Range"
"225","2020/12/12 10:29:13","Rental","Master Room",225,"Room in 633 Yishun Street 61",900,5.11,NA,NA,176,1.41865757414383,103.839842120968,"https://www.99.co/singapore/rooms/property/633-yishun-street-61-hdb-9gQE4uAx76ZcHE6vPWzqi3",176.125244618395,"SG","Northwest","Yishun","761672","611.216161668543","Outside Range"
"226","2020/12/12 10:29:20","Rental","Common Room",226,"Room in 633 Yishun Street 61",800,0,NA,NA,851517677,1.41865757414383,103.839842120968,"https://www.99.co/singapore/rooms/property/633-yishun-street-61-hdb-a7XAPPMzy2yhz3osYJhqS6",NA,"SG","Northwest","Yishun","761672","611.216161668543","Outside Range"
"227","2020/12/12 10:29:26","Rental","Common Room",227,"Room in 633A Senja Road",900,11.25,NA,NA,80,1.38558640738415,103.758340839001,"https://www.99.co/singapore/rooms/property/633a-senja-road-hdb-zRaGqtUjp3m539tMoMxD7",80,"SG","Northwest","Bukit Panjang","670630","546.694234830271","Within Range"
"228","2020/12/12 10:29:33","Rental","Common Room",228,"Room in 636 Hougang Avenue 8",600,6,NA,NA,100,1.37061271157514,103.879209065677,"https://www.99.co/singapore/rooms/property/636-hougang-avenue-8-hdb-KSizDHsn4hQPVsqKTza4T7",100,"SG","Northeast","Hougang","530631","528.906590910111","Within Range"
"229","2020/12/12 10:29:40","Rental","Master Room",229,"Room in 639 Rowell Road",1000,4,NA,NA,250,1.30775082189873,103.855203622089,"https://www.99.co/singapore/rooms/property/639-rowell-road-hdb-hyGbS3B5YAF3jB5T5puBmi",250,"SG","Central","Rochor","200641","527.015431027907","Within Range"
"230","2020/12/12 10:29:46","Rental","Master Room",230,"Room in 639 Rowell Road",1100,5.5,NA,NA,200,1.30775082189873,103.855203622089,"https://www.99.co/singapore/rooms/property/639-rowell-road-hdb-tA6j9EzkrDi7fXS5ouGjkM",200,"SG","Central","Rochor","200641","527.015431027907","Within Range"
"231","2020/12/12 10:29:53","Rental","Common Room",231,"Room in 63A Lengkok Bahru",900,45,NA,NA,20,1.2896510001415,103.815399530717,"https://www.99.co/singapore/rooms/property/63a-lengkok-bahru-hdb-V3BzdHznZ6ghjkcF7izfB4",20,"SG","Central","Bukit Merah","151063","747.049049931791","Outside Range"
"232","2020/12/12 10:29:59","Rental","Common Room",232,"Room in 646 Jurong West Street 61",600,3.73,NA,NA,161,1.33946114326106,103.697110638396,"https://www.99.co/singapore/rooms/property/646-jurong-west-street-61-hdb-56YJy5k7ApY2RzCda8T3dH",160.857908847185,"SG","Southwest","Jurong West","640646","542.688302312121","Within Range"
"233","2020/12/12 10:30:06","Rental","Common Room",233,"Room in 648 Jalan Tenaga",550,7.86,NA,NA,70,1.33231453771745,103.905520202093,"https://www.99.co/singapore/rooms/property/648-jalan-tenaga-hdb-vgdF9NE7pRRRDAJ4wwQz9d",69.9745547073791,"SG","Northeast","Kaki Bukit","410648","568.170922732312","Within Range"
"234","2020/12/12 10:30:12","Rental","Common Room",234,"Room in 657 Jalan Tenaga",650,3.25,NA,NA,200,1.33383104148885,103.90708968723,"https://www.99.co/singapore/rooms/property/657-jalan-tenaga-hdb-jgLopsWFX8GWM6EKrzmuhi",200,"SG","Northeast","Kaki Bukit","410657","450.43079121261","Outside Range"
"235","2020/12/12 10:30:19","Rental","Common Room",235,"Room in 66 Telok Blangah Drive",780,5.2,NA,NA,150,1.27413297268022,103.809632649822,"https://www.99.co/singapore/rooms/property/66-telok-blangah-drive-hdb-PQQtY34U8no7TkyLjqj3jP",150,"SG","Southwest","Alexandra","100066","574.627166873015","Within Range"
"236","2020/12/12 10:30:26","Rental","Common Room",236,"Room in 660 Choa Chu Kang Crescent",600,60,NA,NA,10,1.401022357516,103.749862447053,"https://www.99.co/singapore/rooms/property/660-choa-chu-kang-crescent-hdb-Cz4swX8t4sEBVgE3AbL3aF",10,"SG","Northwest","Choa Chu Kang","681672","503.009666620379","Within Range"
"237","2020/12/12 10:30:32","Rental","Common Room",237,"Room in 668A Edgefield Plains",650,6.07,NA,NA,107,1.40501880052453,103.912411867708,"https://www.99.co/singapore/rooms/property/668a-edgefield-plains-hdb-6vZaXJGGWVyGsFpJZoQ2rY",107.084019769357,"SG","Northeast","Punggol","821668","571.685263647857","Within Range"
"238","2020/12/12 10:30:38","Rental","Common Room",238,"Room in 681 Race Course Road",800,4,NA,NA,200,1.31372067382173,103.855272733514,"https://www.99.co/singapore/rooms/property/681-race-course-road-hdb-qb6AGCn49EF22qCXKMkgbj",200,"SG","Central","Kallang","218123","821.837927430103","Outside Range"
"239","2020/12/12 10:30:45","Rental","Common Room",239,"Room in 683 Tessensohn Road",645,2.15,NA,NA,300,1.31445853642295,103.856019195126,"https://www.99.co/singapore/rooms/property/683-tessensohn-road-hdb-mGPuXjQA7ncYoeJTA2MUeB",300,"SG","Central","Kallang","218123","821.837927430103","Outside Range"
"240","2020/12/12 10:30:51","Rental","Common Room",240,"Room in 684D Edgedale Plains",650,5.42,NA,NA,120,1.40365173571938,103.914094838628,"https://www.99.co/singapore/rooms/property/684d-edgedale-plains-hdb-dDWjAALSRamoRsWrBiCxvS",119.926199261993,"SG","Northeast","Punggol","824684","571.685263647857","Within Range"
"241","2020/12/12 10:30:58","Rental","Common Room",241,"Room in 685 Race Course Road",700,3.5,NA,NA,200,1.31400583508366,103.856831276139,"https://www.99.co/singapore/rooms/property/685-race-course-road-hdb-ZfEy4YqU9JiAmRXVyVxvx7",200,"SG","Central","Kallang","218153","821.837927430103","Outside Range"
"242","2020/12/12 10:31:04","Rental","Common Room",242,"Room in 689B Choa Chu Kang Drive",679,11.32,NA,NA,60,1.40313482841146,103.749793059631,"https://www.99.co/singapore/rooms/property/689b-choa-chu-kang-drive-hdb-PvR6kW5dQJyoJwakzYiEsd",59.982332155477,"SG","Northwest","N/A","681672","873.914047502985","Within Range"
"243","2020/12/12 10:31:11","Rental","Common Room",243,"Room in 697 Hougang Street 61",700,4.67,NA,NA,150,1.37554033809539,103.887475138873,"https://www.99.co/singapore/rooms/property/697-hougang-street-61-hdb-fLuTZiTyqkSbkTK87vhPJZ",149.892933618844,"SG","Northeast","Hougang","538793","488.078073662105","Within Range"
"244","2020/12/12 10:31:17","Rental","Common Room",244,"Room in 699C Hougang Street 52",650,4.64,NA,NA,140,1.37644094969569,103.888527313943,"https://www.99.co/singapore/rooms/property/699c-hougang-street-52-hdb-jcndwzhMnwSYKuRgD5hyxe",140.086206896552,"SG","Northeast","Hougang","530699","528.906590910111","Within Range"
"245","2020/12/12 10:31:24","Rental","Common Room",245,"Room in 705 Tampines Street 71",700,4.67,NA,2,2,1.35711597364176,103.937284846318,"https://www.99.co/singapore/rooms/property/705-tampines-street-71-hdb-Fv2oSWpgoAk39YULU48BCR",149.892933618844,"SG","Northeast","Tampines","N/A","473.693002146233","Within Range"
"246","2020/12/12 10:31:32","Rental","Common Room",246,"Room in 716 Bedok Reservoir Road",700,2.8,NA,NA,250,1.33783795176834,103.924973671246,"https://www.99.co/singapore/rooms/property/716-bedok-reservoir-road-hdb-yjfNgQujiVno3NYHhuMsPN",250,"SG","Northeast","N/A","470716","1810.4427537229","Outside Range"
"247","2020/12/12 10:31:38","Rental","Common Room",247,"Room in 72 Geylang Bahru",550,5.5,NA,NA,100,1.32158321590246,103.871419569078,"https://www.99.co/singapore/rooms/property/72-geylang-bahru-hdb-eRNxeaw7JsBRdrn9XzQ3CS",100,"SG","Central","Kallang","330072","821.837927430103","Within Range"
"248","2020/12/12 10:31:46","Rental","Common Room",248,"Room in 725 Tampines Street 71",800,16,NA,NA,50,1.35698450659333,103.935334493766,"https://www.99.co/singapore/rooms/property/725-tampines-street-71-hdb-VqceHoyphoG4AuxKZbtARL",50,"SG","Northeast","Tampines","520725","473.693002146233","Within Range"
"249","2020/12/12 10:31:53","Rental","Master Room",249,"Room in 727 Yishun Street 71",500,3.11,NA,NA,161,1.42621011729956,103.831240144634,"https://www.99.co/singapore/rooms/property/727-yishun-street-71-hdb-gKiYYFF88hEWuJoRX2izn",160.771704180064,"SG","Northwest","Yishun","760731","503.555707815785","Outside Range"
"250","2020/12/12 10:31:59","Rental","Common Room",250,"Room in 728 Tampines Street 71",750,6.94,NA,NA,108,1.35622572265318,103.934838867632,"https://www.99.co/singapore/rooms/property/728-tampines-street-71-hdb-4TxsXqoP9fRaiZgeBStmDZ",108.06916426513,"SG","Northeast","Tampines","520728","473.693002146233","Within Range"
"251","2020/12/12 10:32:06","Rental","Common Room",251,"Room in 731 Tampines Street 71",750,6.25,NA,NA,120,1.35700670008106,103.934099343677,"https://www.99.co/singapore/rooms/property/731-tampines-street-71-hdb-JNBGL29BBzzuwK2tMaoH4c",120,"SG","Northeast","Tampines","520731","473.693002146233","Within Range"
"252","2020/12/12 10:32:13","Rental","Common Room",252,"Room in 733 Tampines Street 71",650,4.64,NA,NA,140,1.35782458207952,103.933874048097,"https://www.99.co/singapore/rooms/property/733-tampines-street-71-hdb-n2CabGwRH6gLxuUAGB7VqC",140.086206896552,"SG","Northeast","Tampines","520733","473.693002146233","Within Range"
"253","2020/12/12 10:32:21","Rental","Common Room",253,"Room in 746 Pasir Ris Street 71",600,4.29,NA,NA,140,1.37860702854692,103.935156189799,"https://www.99.co/singapore/rooms/property/746-pasir-ris-street-71-hdb-RfwaZe2ZqWdAYaJGjLrQzU",139.86013986014,"SG","Northeast","Pasir Ris","510746","573.872904376391","Within Range"
"254","2020/12/12 10:32:27","Rental","Common Room",254,"Room in 747 Pasir Ris Street 71",700,5.38,NA,NA,130,1.37922082554391,103.934555833334,"https://www.99.co/singapore/rooms/property/747-pasir-ris-street-71-hdb-ouUR4oHWaR9gY92aPMAc2U",130.111524163569,"SG","Northeast","Pasir Ris","510747","573.872904376391","Within Range"
"255","2020/12/12 10:32:34","Rental","Common Room",255,"Room in 749 Pasir Ris Street 71",650,3.61,NA,NA,180,1.3783399379174,103.934276500207,"https://www.99.co/singapore/rooms/property/749-pasir-ris-street-71-hdb-pMMYQmBxDsaMr93zKLHdBW",180.05540166205,"SG","Northeast","Pasir Ris","510749","573.872904376391","Within Range"
"256","2020/12/12 10:32:41","Rental","Common Room",256,"Room in 754 Pasir Ris Street 71",800,4,NA,NA,200,1.37718978054586,103.934079840236,"https://www.99.co/singapore/rooms/property/754-pasir-ris-street-71-hdb-dMrkt6WcpMjp2BvEa8zReh",200,"SG","Northeast","Pasir Ris","510754","573.872904376391","Within Range"
"257","2020/12/12 10:32:47","Rental","Common Room",257,"Room in 758 Choa Chu Kang North 5",900,9,NA,NA,100,1.39317151524526,103.746133684219,"https://www.99.co/singapore/rooms/property/758-choa-chu-kang-north-5-hdb-43iFehCzD84EFAcVcPZEbV",100,"SG","Northwest","Choa Chu Kang","689189","503.009666620379","Within Range"
"258","2020/12/12 10:32:54","Rental","Common Room",258,"Room in 76 Lorong Limau",400,3.08,NA,NA,130,1.32502427886168,103.854232129189,"https://www.99.co/singapore/rooms/property/76-lorong-limau-hdb-mrA2UTQTNUQdQRj4ifEsRW",129.87012987013,"SG","Central","Novena","320089","593.024280917833","Outside Range"
"259","2020/12/12 10:33:00","Rental","Common Room",259,"Room in 760 Yishun Street 72",650,65,NA,NA,10,1.42579485526293,103.832724670537,"https://www.99.co/singapore/rooms/property/760-yishun-street-72-hdb-MfNrnyZ73NxmviLjb5JArU",10,"SG","Northwest","Yishun","760774","611.216161668543","Outside Range"
"260","2020/12/12 10:33:09","Rental","Common Room",260,"Room in 76A Redhill Road",900,6,NA,NA,150,1.2887163196844,103.816854593836,"https://www.99.co/singapore/rooms/property/76a-redhill-road-hdb-E8Ypg8eigCATDHCeZiunwX",150,"SG","Central","Bukit Merah","151076","734.008483601876","Within Range"
"261","2020/12/12 10:33:16","Rental","Common Room",261,"Room in 771 Bedok Reservoir View",750,0.22,NA,NA,3465,1.33593406213276,103.938866262286,"https://www.99.co/singapore/rooms/property/771-bedok-reservoir-view-hdb-LMXnW6jdQWqYQ4oZDBruHm",3409.09090909091,"SG","Southeast","Bedok","470771","541.307250602302","Outside Range"
"262","2020/12/12 10:33:23","Rental","Common Room",262,"Room in 786B Woodlands Drive 60",600,3.73,NA,NA,161,1.44568798991504,103.80069395076,"https://www.99.co/singapore/rooms/property/786b-woodlands-drive-60-hdb-rgtBpswo7S9YLYe3rw7jmH",160.857908847185,"SG","Northwest","Woodlands","732799","462.278716002517","Within Range"
"263","2020/12/12 10:33:30","Rental","Common Room",263,"Room in 79B Toa Payoh Central",790,5.45,NA,NA,145,1.3346407830191,103.847990266882,"https://www.99.co/singapore/rooms/property/79b-toa-payoh-central-hdb-Gm5G4uT55JXWG2ZMLuGRnS",144.954128440367,"SG","Central","Toa Payoh","310177","672.152699916389","Within Range"
"264","2020/12/12 10:33:36","Rental","Common Room",264,"Room in 8 Lorong 7 Toa Payoh",700,5.43,NA,NA,129,1.33788050113881,103.856612802183,"https://www.99.co/singapore/rooms/property/8-lorong-7-toa-payoh-hdb-YpNAQXpLdJRMRixykqCPfK",128.913443830571,"SG","Central","Toa Payoh","310008","490.973317225598","Within Range"
"265","2020/12/12 10:33:43","Rental","Common Room",265,"Room in 801 Tampines Avenue 4",650,5.42,NA,NA,120,1.34719233084528,103.938014037188,"https://www.99.co/singapore/rooms/property/801-tampines-avenue-4-hdb-855CLdahghSNJUPNXeKS5T",119.926199261993,"SG","Northeast","Tampines","520801","473.693002146233","Within Range"
"266","2020/12/12 10:33:49","Rental","Common Room",266,"Room in 802C Keat Hong Close",600,4.65,NA,1,1,1.37479380170163,103.742607118184,"https://www.99.co/singapore/rooms/property/802c-keat-hong-close-hdb-HUEWTMc5XnAk5eHL6MmPuh",129.032258064516,"SG","Southwest","Choa Chu Kang","683802","503.009666620379","Outside Range"
"267","2020/12/12 10:33:56","Rental","Common Room",267,"Room in 82A Lorong 4 Toa Payoh",650,4.33,NA,NA,150,1.33597952666564,103.848953918024,"https://www.99.co/singapore/rooms/property/82a-lorong-4-toa-payoh-hdb-pBjwwAUY8Eavozt4sQ96eF",150.115473441109,"SG","Central","Toa Payoh","319579","505.663677748197","Outside Range"
"268","2020/12/12 10:34:04","Rental","Common Room",268,"Room in 83 Lorong 2 Toa Payoh",1000,4,NA,NA,250,1.33578791220736,103.847991955843,"https://www.99.co/singapore/rooms/property/83-lorong-2-toa-payoh-hdb-76eE35JEvRcfw4wx7SpiWf",250,"SG","Central","Toa Payoh","310177","505.663677748197","Outside Range"
"269","2020/12/12 10:34:10","Rental","Common Room",269,"Room in 830 Hougang Central",750,7.5,NA,NA,100,1.37074954591361,103.890329112915,"https://www.99.co/singapore/rooms/property/830-hougang-central-hdb-mM7dos32G4S5kAq9xDGvqT",100,"SG","Northeast","Hougang","538829","528.906590910111","Within Range"
"270","2020/12/12 10:34:16","Rental","Common Room",270,"Room in 832 Tampines Street 82",750,5.77,NA,NA,130,1.35010171477604,103.935397838075,"https://www.99.co/singapore/rooms/property/832-tampines-street-82-hdb-BmVQBfDA4v6Wr8WubXEQ7X",129.98266897747,"SG","Northeast","Tampines","529705","473.693002146233","Within Range"
"271","2020/12/12 10:34:23","Rental","Common Room",271,"Room in 832 Tampines Street 82",650,4.33,NA,NA,150,1.35010171477604,103.935397838075,"https://www.99.co/singapore/rooms/property/832-tampines-street-82-hdb-MghntwcykNWgsJjxCJCfqc",150.115473441109,"SG","Northeast","Tampines","529705","473.693002146233","Within Range"
"272","2020/12/12 10:34:29","Rental","Room",272,"Room in 842C Tampines Street 82",650,4.33,NA,2,2,1.35088788336261,103.936851618817,"https://www.99.co/singapore/rooms/property/842c-tampines-street-82-hdb-YtjwgsUcNyAdnEyJmRMure",150.115473441109,"SG","Northeast","Tampines","523842","473.693002146233","Within Range"
"273","2020/12/12 10:34:37","Rental","Common Room",273,"Room in 842G Tampines Street 82",650,4.33,NA,2,2,1.35207674741611,103.937111715862,"https://www.99.co/singapore/rooms/property/842g-tampines-street-82-hdb-emYPYf7VnbnaXJZAeTR3RM",150.115473441109,"SG","Northeast","Tampines","527842","473.693002146233","Within Range"
"274","2020/12/12 10:34:43","Rental","Room",274,"Room in 846 Sims Avenue",800,7.48,NA,2,2,1.317602618253,103.90170722021,"https://www.99.co/singapore/rooms/property/846-sims-avenue-hdb-mMWFi74jTXhJtt6QXipfcb",106.951871657754,"SG","Southeast","Geylang","409075","608.596216375891","Within Range"
"275","2020/12/12 10:34:50","Rental","Common Room",275,"Room in 848 Jurong West Street 81",325,3.25,NA,NA,100,1.34570827217751,103.692018052051,"https://www.99.co/singapore/rooms/property/848-jurong-west-street-81-hdb-sqAsqqPVwNKCPMMZmKjh8G",100,"SG","Southwest","Jurong West","640848","542.688302312121","Outside Range"
"276","2020/12/12 10:34:57","Rental","Common Room",276,"Room in 851 Tampines Street 83",750,5.77,NA,NA,130,1.35294870037297,103.93494067824,"https://www.99.co/singapore/rooms/property/851-tampines-street-83-hdb-SaQVWMyZZm6vQzgaNx9M8b",129.98266897747,"SG","Northeast","Tampines","520851","473.693002146233","Within Range"
"277","2020/12/12 10:35:04","Rental","Common Room",277,"Room in 87 Redhill Close",900,4.5,NA,NA,200,1.28603089023715,103.819023673783,"https://www.99.co/singapore/rooms/property/87-redhill-close-hdb-R2F5ycohmQH8Y7j2bBKpia",200,"SG","Central","Bukit Merah","150087","734.008483601876","Within Range"
"278","2020/12/12 10:35:10","Rental","Common Room",278,"Room in 88 Telok Blangah Heights",880,2.93,NA,NA,300,1.27736919004893,103.808254924084,"https://www.99.co/singapore/rooms/property/88-telok-blangah-heights-hdb-6KKwSd893bXGXgp2ArBYe",300.341296928328,"SG","Southwest","Alexandra","100088","611.216161668543","Outside Range"
"279","2020/12/12 10:35:16","Rental","Common Room",279,"Room in 89 Tanglin Halt Road",850,5.67,NA,NA,150,1.30120035372776,103.798921874569,"https://www.99.co/singapore/rooms/property/89-tanglin-halt-road-hdb-oxsQwwbtQMYiPXHDjWVHn9",149.911816578483,"SG","Central","Queenstown","141089","893.913778246477","Within Range"
"280","2020/12/12 10:35:35","Rental","Common Room",280,"Room in 895A Tampines Street 81",800,6.15,NA,NA,130,1.34767895311778,103.932456598668,"https://www.99.co/singapore/rooms/property/895a-tampines-street-81-hdb-en62k9Hpd699uqLoduUJWh",130.081300813008,"SG","Northeast","Tampines","521895","473.693002146233","Within Range"
"281","2020/12/12 10:35:44","Rental","Common Room",281,"Room in 899A Tampines Street 81",650,6.5,NA,NA,100,1.34632473579466,103.935008515937,"https://www.99.co/singapore/rooms/property/899a-tampines-street-81-hdb-ntm9bFWSrDGmhWzAkhyCid",100,"SG","Northeast","Tampines","521899","473.693002146233","Within Range"
"282","2020/12/12 10:35:50","Rental","Common Room",282,"Room in 8B Upper Boon Keng Road",850,7.08,NA,NA,120,1.31245374000854,103.870051873232,"https://www.99.co/singapore/rooms/property/8b-upper-boon-keng-road-hdb-GHRCLDxQTwtRS6HVYYYPdK",120.056497175141,"SG","Central","Kallang","382008","821.837927430103","Within Range"
"283","2020/12/12 10:35:56","Rental","Common Room",283,"Room in 8B Upper Boon Keng Road",850,5.67,NA,1,1,1.31245374000854,103.870051873232,"https://www.99.co/singapore/rooms/property/8b-upper-boon-keng-road-hdb-zfC3pGK7tLbYhvNWA8QXMV",149.911816578483,"SG","Central","Kallang","382008","821.837927430103","Within Range"
"284","2020/12/12 10:36:03","Rental","Common Room",284,"Room in 9 Cantonment Close",800,4,NA,NA,200,1.27530180077968,103.839207273761,"https://www.99.co/singapore/rooms/property/9-cantonment-close-hdb-5S5KgvsCZmBh4eRJYxF994",200,"SG","Central","Bukit Merah","080009","747.049049931791","Outside Range"
"285","2020/12/12 10:36:09","Rental","Common Room",285,"Room in 9 Selegie Road",700,7,NA,NA,100,1.30346096156272,103.850709313633,"https://www.99.co/singapore/rooms/property/9-selegie-road-hdb-g2GKCph9tXQsFWNcwWBAvc",100,"SG","Central","Rochor","N/A","607.821792704184","Within Range"
"286","2020/12/12 10:36:15","Rental","Master Room",286,"Room in 907 Tampines Avenue 4",900,4.5,NA,NA,200,1.35061228147276,103.939397414558,"https://www.99.co/singapore/rooms/property/907-tampines-avenue-4-hdb-msfRzcEDd6zGub7JhVtMYe",200,"SG","Northeast","Tampines","520907","473.693002146233","Within Range"
"287","2020/12/12 10:36:22","Rental","Common Room",287,"Room in 93 Dawson Road",900,7.5,NA,1,1,1.29499226963351,103.8117965437,"https://www.99.co/singapore/rooms/property/93-dawson-road-hdb-NponVywpVQDdErHCc5BAZc",120,"SG","Central","Queenstown","N/A","893.913778246477","Within Range"
"288","2020/12/12 10:36:28","Rental","Common Room",288,"Room in 93 Jalan Dua",850,4.25,NA,NA,200,1.30868190843588,103.887123739313,"https://www.99.co/singapore/rooms/property/93-jalan-dua-hdb-btpUecn9GU48XqgfTGXhGL",200,"SG","Southeast","Geylang","390093","578.954462619047","Within Range"
"289","2020/12/12 10:36:35","Rental","Common Room",289,"Room in 96A Henderson Road",750,3.75,NA,NA,200,1.28801714930854,103.821889222342,"https://www.99.co/singapore/rooms/property/96a-henderson-road-hdb-uwWnFfrggn8XHeKjNhzW5",200,"SG","Central","Bukit Merah","151106","747.049049931791","Outside Range"
"290","2020/12/12 10:36:41","Rental","Common Room",290,"Room in 979C Buangkok Crescent",650,6.5,NA,NA,100,1.3795389085181,103.87995444753,"https://www.99.co/singapore/rooms/property/979c-buangkok-crescent-hdb-unR4zQTPFTMUTDpt2skt66",100,"SG","Northeast","Hougang","532987","528.906590910111","Within Range"
"291","2020/12/12 10:36:48","Rental","Master Room",291,"Room in 991A Buangkok Link",1100,3.67,NA,NA,300,1.384307807043,103.882225801104,"https://www.99.co/singapore/rooms/property/991a-buangkok-link-hdb-RqnkdMjBmS4BfcuZv7pCo5",299.727520435967,"SG","Northeast","Hougang","530991","528.906590910111","Outside Range"
"292","2020/12/12 10:36:54","Rental","Common Room",292,"Room in 9A Boon Tiong Road",800,6.67,NA,NA,120,1.28682715241792,103.828659487514,"https://www.99.co/singapore/rooms/property/9a-boon-tiong-road-hdb-bxBgba3zECZjtoYetdebj8",119.940029985007,"SG","Central","Bukit Merah","169568","734.008483601876","Within Range"
"293","2020/12/12 10:37:07","Rental","Common Room",293,"Room in A Treasure Trove",950,3.8,NA,NA,250,1.40537848583743,103.899682535654,"https://www.99.co/singapore/rooms/property/a-treasure-trove-condo-ETCxQ8ASMeiGQ7e3EfFd7b",250,"SG","Northeast","Punggol","N/A","1152.65611049498","Outside Range"
"294","2020/12/12 10:37:13","Rental","Common Room",294,"Room in Airstream",900,9,NA,NA,100,1.32732661439017,103.864035551424,"https://www.99.co/singapore/rooms/property/airstream-condo-VsWBS2aaLDGLdsStnEgDvV",100,"SG","Central","Kallang","327994","1610.22302472504","Within Range"
"295","2020/12/12 10:37:21","Rental","Common Room",295,"Room in [emailprotected]",1300,1.08,NA,1,1,1.31267370389955,103.875594333898,"https://www.99.co/singapore/rooms/property/angsana21-condo-Bt25kuME5kJtBHc2YK8UYi",1203.7037037037,"SG","Southeast","Geylang","387416","1633.79002464595","Outside Range"
"296","2020/12/12 10:37:27","Rental","Master Room",296,"Room in [emailprotected]",1100,5.5,NA,NA,200,1.31267370389955,103.875594333898,"https://www.99.co/singapore/rooms/property/angsana21-condo-vXNkEHoUKnGxVprd8mSj9m",200,"SG","Southeast","Geylang","387416","1633.79002464595","Within Range"
"297","2020/12/12 10:37:35","Rental","Common Room",297,"Room in Ava Towers",800,4,NA,1,1,1.32210687701564,103.851764282897,"https://www.99.co/singapore/rooms/property/ava-towers-condo-xQvMFfWsFafiQLyHqKYYWh",200,"SG","Central","Novena","329720","1928.12979752931","Within Range"
"298","2020/12/12 10:37:41","Rental","Master Room",298,"Room in Avon Park",1268,4.23,NA,NA,300,1.33924560642215,103.869770060845,"https://www.99.co/singapore/rooms/property/avon-park-condo-7Zr86DpJ8WjY8gfrNeHppH",299.763593380615,"SG","Southeast","Potong Pasir","357741","1724.72183154433","Within Range"
"299","2020/12/12 10:37:48","Rental","Master Room",299,"Room in Avon Park",1200,4,NA,NA,300,1.33924560642215,103.869770060845,"https://www.99.co/singapore/rooms/property/avon-park-condo-GfqcUhbpPg8dNuQZcExADi",300,"SG","Southeast","Potong Pasir","357741","1724.72183154433","Within Range"
"300","2020/12/12 10:37:54","Rental","Master Room",300,"Room in Avon Park",1250,4.17,NA,NA,300,1.33924560642215,103.869770060845,"https://www.99.co/singapore/rooms/property/avon-park-condo-MKUQZ8CtkUHipX6rSPYawf",299.760191846523,"SG","Southeast","Potong Pasir","357741","1724.72183154433","Within Range"
"301","2020/12/12 10:38:00","Rental","Common Room",301,"Room in Balestier Road",1100,5.5,NA,NA,200,1.32562753542608,103.847119180182,"https://www.99.co/singapore/rooms/property/balestier-road-landed-Ra334GGSYhLH7AKbiYWLhE",200,"SG","Central","Novena","329848","2683.71721054184","Within Range"
"302","2020/12/12 10:38:07","Rental","Common Room",302,"Room in Bayshore Park",1100,6.11,NA,NA,180,1.31151310201462,103.936677287402,"https://www.99.co/singapore/rooms/property/bayshore-park-condo-EEV7BTh3f47mWbbGkGXoUT",180.032733224223,"SG","Southeast","Bedok","469979","1022.0542776221","Within Range"
"303","2020/12/12 10:38:14","Rental","Master Room",303,"Room in Beauty World Centre",1300,6.5,NA,NA,200,1.34241264188643,103.776539385678,"https://www.99.co/singapore/rooms/property/beauty-world-centre-condo-hjAukvdAejeQ4Vm9ekRriG",200,"SG","Southwest","N/A","588177","1746.61609274496","Within Range"
"304","2020/12/12 10:38:22","Rental","Common Room",304,"Room in English Villas",1350,6.75,NA,NA,200,1.3266558660988,103.949791487032,"https://www.99.co/singapore/rooms/property/bedok-rise-landed-4nHqMbaY8bKZ6su8mPK4gN",200,"SG","Southeast","Bedok","465410","2055.27548136527","Within Range"
"305","2020/12/12 10:38:28","Rental","Common Room",305,"Room in Bishan Loft",1050,5.25,NA,NA,200,1.34713194946878,103.852301304863,"https://www.99.co/singapore/rooms/property/bishan-loft-condo-Bi6NiuyckeHsrVakptDJFf",200,"SG","Central","Bishan","579821","1505.48413991973","Within Range"
"306","2020/12/12 10:38:35","Rental","Common Room",306,"Room in Braddell View",950,4.75,NA,NA,200,1.34073884740704,103.841189205391,"https://www.99.co/singapore/rooms/property/braddell-view-condo-gpn9x9FePYtRYsYz7JiUxj",200,"SG","Central","Toa Payoh","297754","908.576827735045","Outside Range"
"307","2020/12/12 10:38:42","Rental","Master Room",307,"Room in Bukit Merah Lane 1",300,1.99,NA,NA,151,1.28608988108124,103.803988553744,"https://www.99.co/singapore/rooms/property/bukit-merah-lane-1-landed-FLFCoNzF7GB7VktpwEu6CJ",150.753768844221,"SG","Central","Bukit Merah","155122","1963.16751419149","Outside Range"
"308","2020/12/12 10:38:48","Rental","Common Room",308,"Room in Burlington Square",1800,7.2,NA,NA,250,1.30215328603755,103.852627048274,"https://www.99.co/singapore/rooms/property/burlington-square-condo-DtVDjU9DUe7KNLntgnBdk4",250,"SG","Central","Rochor","188546","911.367680647133","Within Range"
"309","2020/12/12 10:38:55","Rental","Common Room",309,"Room in Butterworth View",888,4.44,NA,NA,200,1.31271778168956,103.895271671003,"https://www.99.co/singapore/rooms/property/butterworth-view-condo-7swnEkkDUgkauiQXcT3uLh",200,"SG","Southeast","Geylang","430021","1348.04528666288","Within Range"
"310","2020/12/12 10:39:01","Rental","Master Room",310,"Room in Canne Lodge",1500,5,NA,NA,300,1.31416428450834,103.873276490022,"https://www.99.co/singapore/rooms/property/canne-lodge-condo-Xyrisb25iae3TG8EDTSj4L",300,"SG","Southeast","Kallang Way","388869","1610.22302472504","Within Range"
"311","2020/12/12 10:39:08","Rental","Common Room",311,"Room in Canne Ville",1000,5.52,NA,NA,181,1.31193860023397,103.874584541979,"https://www.99.co/singapore/rooms/property/canne-ville-condo-GoKX8HTiBYiNZ5v6ujFRPa",181.159420289855,"SG","Southeast","N/A","381114","2386.52780474991","Within Range"
"312","2020/12/12 10:39:14","Rental","Master Room",312,"Room in Carpmael Road",1000,4.42,NA,NA,226,1.30788334908467,103.901872175605,"https://www.99.co/singapore/rooms/property/carpmael-road-landed-ee7rNBZetFvRpBTmaYq4o6",226.244343891403,"SG","Southeast","Marine Parade","429649","1530.10437273429","Within Range"
"313","2020/12/12 10:39:21","Rental","Common Room",313,"Room in Cashew Villas",1200,8,NA,1,1,1.37118028843805,103.768976389467,"https://www.99.co/singapore/rooms/property/cashew-crescent-landed-cnSE8Qa33UuLjP2hDHwNSL",150,"SG","N/A","N/A","N/A","1742.31678852838","Within Range"
"314","2020/12/12 10:39:27","Rental","Common Room",314,"Room in Cashew Heights Condominium",850,5.67,NA,NA,150,1.37349284419881,103.767334346766,"https://www.99.co/singapore/rooms/property/cashew-heights-condominium-condo-3e7kRj2giineZ9QMJUPoDB",149.911816578483,"SG","Northwest","Bukit Panjang","679670","1108.96125681394","Within Range"
"315","2020/12/12 10:39:34","Rental","Common Room",315,"Room in Caspian",1100,3.67,NA,NA,300,1.34285468777307,103.718095643837,"https://www.99.co/singapore/rooms/property/caspian-condo-ZSx7SR7FH9pR8nvLVeErGk",299.727520435967,"SG","Southwest","Jurong West","N/A","1298.06636216322","Within Range"
"316","2020/12/12 10:39:40","Rental","Master Room",316,"Room in Cavenagh Gardens",1500,7.5,NA,NA,200,1.30511072059542,103.840669806833,"https://www.99.co/singapore/rooms/property/cavenagh-gardens-condo-CS3DMFz4bN59MTSXibaYu5",200,"SG","Central","Newton","N/A","3428.75079629965","Within Range"
"317","2020/12/12 10:39:47","Rental","Common Room",317,"Room in Cavenagh Gardens",1250,6.25,NA,NA,200,1.30511072059542,103.840669806833,"https://www.99.co/singapore/rooms/property/cavenagh-gardens-condo-f3Jtg9ubb9BxkvpH7PkoAM",200,"SG","Central","Newton","N/A","3428.75079629965","Within Range"
"318","2020/12/12 10:39:55","Rental","Common Room",318,"Room in Central Green Condominium",1380,9.2,NA,NA,150,1.28504050875588,103.828090248497,"https://www.99.co/singapore/rooms/property/central-green-condominium-condo-mJTAj2mVcV3EjRoYPERgAE",150,"SG","Central","Bukit Merah","N/A","1243.93843251991","Within Range"
"319","2020/12/12 10:40:01","Rental","Master Room",319,"Room in Central Grove",1400,4.67,NA,NA,300,1.31602253844363,103.884445952883,"https://www.99.co/singapore/rooms/property/central-grove-condo-HuMYuFLAk3KBEKTEHjdJ4Y",299.785867237687,"SG","Southeast","Geylang","N/A","1616.26789273933","Within Range"
"320","2020/12/12 10:40:07","Rental","Common Room",320,"Room in Central Imperial",900,15.79,NA,NA,57,1.31194266781347,103.879213970964,"https://www.99.co/singapore/rooms/property/central-imperial-condo-RvEr6mXW8d8AVWUVemAuyn",56.9981000633312,"SG","Southeast","Geylang","398961","1348.04528666288","Within Range"
"321","2020/12/12 10:40:18","Rental","Master Room",321,"Room in Changi Green",1200,6,NA,NA,200,1.34458124151666,103.963544171684,"https://www.99.co/singapore/rooms/property/changi-green-condo-j3TqDjzQzi8ZMyitLGbwEH",200,"SG","Southeast","Simei","N/A","1724.71115554433","Within Range"
